,Unnamed: 0.4,Unnamed: 0.3,Unnamed: 0.2,Unnamed: 0.1,Unnamed: 0,Prices,Area,toFace,type,certificate,width,length,floors,Latitude,Longitude,Street,Ward,District,distance_to_beach,distance_to_center,distance_to_airport
0,0,0,0,0,0,4.1,60.0,Không,Nhà mặt tiền,Giấy tờ hợp lệ,4.5,15.0,5,16.0484714,108.2406022, An Thượng 18,Mỹ An,ngũ hành sơn,1.963053599086896,3.3373555285958,4.173249433381312
1,1,1,1,1,1,3.3,90.0,Không,Nhà mặt tiền,Giấy tờ hợp lệ,5.0,18.0,2,16.0595231,108.179155, Trường Chinh,Hòa An,cẩm lệ,7.342261974734708,3.4761945440084063,2.528594798354249
2,2,2,2,2,2,15.0,153.0,Không,Nhà mặt tiền,Giấy tờ hợp lệ,6.0,27.0,3,16.0756243,108.2319079, Ngô Quyền,An Hải Bắc,sơn trà,2.0522137939375127,2.796568797472516,3.733505998421484
3,3,3,3,3,3,6.5,90.0,Không,Nhà mặt tiền,Giấy tờ hợp lệ,14.0,7.0,1,16.0334743,108.2218767, Tiên Sơn 10,Hòa Cường Nam,hải châu,4.4308393785108064,3.098364942182785,3.3360939696302885
4,4,4,4,4,4,11.0,100.0,Không,Nhà mặt tiền,Giấy tờ hợp lệ,5.0,20.0,5,16.0766319,108.2329889, Hoàng Đức Lương,An Hải Bắc,sơn trà,2.0285804698849543,2.956690879373904,3.8913844027825344
5,5,5,5,5,5,7.2,100.0,Không,Nhà mặt tiền,Giấy tờ hợp lệ,5.0,20.0,3,16.0366455,108.2211218, Tiên Sơn 8,Hòa Cường Nam,hải châu,4.214947052772332,2.7419693794412834,3.013796631241829
6,6,6,6,6,6,2.9,100.0,Không,Nhà mặt tiền,Giấy tờ hợp lệ,5.0,20.0,2,15.9921331,108.2064071, Huỳnh Tịnh Của,Xã Hòa Châu,hòa vang,9.176493365212188,7.4940639923443,7.213283757067011
7,7,7,7,7,7,3.5,100.0,Không,Nhà mặt tiền,Giấy tờ hợp lệ,5.0,20.0,2,16.0494345,108.1483198, Huỳnh Thị Bảo Hòa,Hòa Khánh Nam,liên chiểu,10.754737983679991,6.869715018951979,5.878732249688591
8,8,8,8,8,8,4.7,100.0,Không,Nhà mặt tiền,Giấy tờ hợp lệ,5.0,20.0,3,16.0199418,108.207474, Lưu Nhân Chú,Khuê Trung,cẩm lệ,6.567421705172774,4.418387202068741,4.156857940946859
9,9,9,9,9,9,25.0,313.0,Không,Nhà mặt tiền,Giấy tờ hợp lệ,7.0,48.0,4,16.0705872,108.1527666, Tôn Đức Thắng,Hòa Khánh Bắc,liên chiểu,10.161087742443131,6.414493194001564,5.540379991525375
10,10,10,10,10,10,4.7,80.0,Không,Nhà mặt tiền,Giấy tờ hợp lệ,4.5,15.0,2,16.0302822,108.2128971, Hóa Mỹ,Khuê Trung,cẩm lệ,5.330664885991734,3.2543363029306933,3.175366210109518
11,11,11,11,11,11,3.5,105.0,Không,Nhà mặt tiền,Giấy tờ hợp lệ,5.0,20.0,2,16.0414482,108.1675716, Phước Lý 6,Hòa Minh,liên chiểu,8.942538929458276,5.128648492794901,4.140951408162975
12,12,12,12,12,12,5.2,75.0,Không,Nhà mặt tiền,Không có,5.0,15.0,3,16.0805678,108.1589765, Hoà Minh 15,Hòa Minh,liên chiểu,9.634316316936028,6.09125443800974,5.341228009145581
13,13,13,13,13,13,6.6,105.0,Không,Nhà mặt tiền,Giấy tờ hợp lệ,5.0,22.0,3,16.0585049,108.185654, Lý Triện,An Khê,thanh khê,6.660404026000368,2.783721542377011,1.825846780232388
14,14,14,14,14,14,5.7,100.0,Không,Nhà mặt tiền,Giấy tờ hợp lệ,5.0,20.0,3,16.0077874,108.2280883, Thanh Lương 8,Hòa Xuân,cẩm lệ,6.653270170396843,6.00455871554334,6.109145890598027
15,15,15,15,15,15,4.7,80.0,Không,Nhà mặt tiền,Giấy tờ hợp lệ,5.0,14.0,2,16.0302822,108.2128971, Hóa Mỹ,Khuê Trung,cẩm lệ,5.330664885991734,3.2543363029306933,3.175366210109518
16,16,16,16,16,16,6.7,100.0,Không,Nhà mặt tiền,Giấy tờ hợp lệ,5.0,20.0,3,16.0009105,108.2130994, Văn Tiến Dũng,Hòa Xuân,cẩm lệ,7.982278306406917,6.503671979037734,6.3301303601758665
17,17,17,17,17,17,3.75,113.0,Không,Nhà mặt tiền,Giấy tờ hợp lệ,5.0,23.0,3,16.0428383,108.1690992, Phước Lý 5,Hòa Minh,liên chiểu,8.742024245644506,4.918467305409218,3.9285089676563874
18,18,18,18,18,18,6.8,100.0,Không,Nhà mặt tiền,Không có,5.0,20.0,3,16.0009105,108.2130994, Văn Tiến Dũng,Hòa Xuân,cẩm lệ,7.982278306406917,6.503671979037734,6.3301303601758665
19,19,19,19,19,19,4.75,120.0,Không,Nhà mặt tiền,Giấy tờ hợp lệ,5.0,24.0,3,16.0093672,108.2225957, Phạm Xuân Ẩn,Hòa Xuân,cẩm lệ,6.699318911934934,5.688098180830738,5.708483162565261
20,20,20,20,20,20,6.4,95.0,Không,Nhà mặt tiền,Không có,5.0,19.0,3,15.9975739,108.2002439, Nguyễn Hồng Ánh,Xã Hòa Châu,hòa vang,9.006565799174593,6.978455406345205,6.605174206546393
21,21,21,21,21,21,2.75,60.0,Không,Nhà trong hẻm,Giấy tờ hợp lệ,4.5,15.0,2,16.0698397,108.2115701, Lê Duẩn,Tân Chính,thanh khê,3.88841536044275,1.1258653402444132,1.690805522306393
22,22,22,22,22,22,2.6,100.0,Không,Nhà trong hẻm,Giấy tờ hợp lệ,5.0,20.0,2,16.0554848,108.1553766, Hoàng Văn Thái,Hòa Khánh Nam,liên chiểu,9.917383246685455,6.03832112693159,5.063737357990122
23,23,23,23,23,23,3.8,50.0,Không,Nhà trong hẻm,Giấy tờ hợp lệ,4.5,12.0,3,16.0672041,108.2443275, Hà Bổng,Phước Mỹ,sơn trà,0.4293659485725036,3.5955084989864625,4.592833762470426
24,24,24,24,24,24,3.35,70.0,Không,Nhà trong hẻm,Giấy tờ hợp lệ,4.0,17.5,3,16.0604801,108.165628, Ngô Chân Lưu,Hòa Minh,liên chiểu,8.779160289577735,4.924395671938321,3.979524815425038
25,25,25,25,25,25,2.55,80.0,Không,Nhà trong hẻm,Không có,5.0,16.0,2,16.0723048,108.1472133, Đồng Kè,Hòa Khánh Bắc,liên chiểu,10.766967754382824,7.034231089625177,6.163786505545406
26,26,26,26,26,26,1.75,70.0,Không,Nhà trong hẻm,Giấy tờ hợp lệ,4.5,16.0,1,16.041122,108.184901, Trường Chinh,Hòa Phát,cẩm lệ,7.201188503435208,3.5211905308176226,2.6049738435175485
27,27,27,27,27,27,3.69,85.0,Không,Nhà trong hẻm,Giấy tờ hợp lệ,5.0,16.0,3,16.0583615,108.1683251, Tô Hiệu,Hòa Minh,liên chiểu,8.507768670810812,4.637246247012794,3.676714756835964
28,28,28,28,28,28,5.95,13.0,Không,Nhà trong hẻm,Giấy tờ hợp lệ,5.8,23.0,3,16.044107,108.2060114, Trưng Nữ Vương,Hòa Thuận Tây,hải châu,5.004469849198954,1.824090898313722,1.494315801070678
29,29,29,29,29,29,6.0,150.0,Không,Nhà trong hẻm,Giấy tờ hợp lệ,6.0,25.0,3,16.044107,108.2060114, Trưng Nữ Vương,Hòa Thuận Tây,hải châu,5.004469849198954,1.824090898313722,1.494315801070678
30,30,30,30,30,30,2.8,70.0,Không,Nhà trong hẻm,Giấy tờ hợp lệ,6.0,12.0,1,16.0929062,108.2484832, Võ Duy Ninh,Thọ Quang,sơn trà,3.101851419860263,5.3914983589475565,6.295157134681375
31,31,31,31,31,31,2.55,65.0,Không,Nhà trong hẻm,Giấy tờ hợp lệ,4.5,15.0,2,16.0674661,108.1932536, Thái Thị Bôi,Chính Gián,thanh khê,5.816508032438447,2.148548751079927,1.5167105211395546
32,32,32,32,32,32,3.2,70.0,Không,Nhà trong hẻm,Giấy tờ hợp lệ,5.0,13.0,2,16.0718385,108.1883741, Trần Cao Vân,Xuân Hà,thanh khê,6.378068160242131,2.830663747943176,2.226242239621569
33,33,33,33,33,33,2.15,60.0,Không,Nhà trong hẻm,Giấy tờ hợp lệ,4.5,15.0,2,16.0415679,108.1813377, Tôn Đản,Hòa An,cẩm lệ,7.540386123959919,3.81132784558817,2.864890139485825
34,34,34,34,34,34,3.65,80.0,Không,Nhà trong hẻm,Giấy tờ hợp lệ,4.5,18.0,1,16.044107,108.2060114, Trưng Nữ Vương,Hòa Thuận Tây,hải châu,5.004469849198954,1.824090898313722,1.494315801070678
35,35,35,35,35,35,1.65,55.0,Không,Nhà trong hẻm,Giấy tờ hợp lệ,4.5,14.0,1,16.0595231,108.179155, Trường Chinh,Hòa An,cẩm lệ,7.342261974734708,3.4761945440084063,2.528594798354249
36,36,36,36,36,36,2.7,120.0,Không,Nhà trong hẻm,Giấy tờ hợp lệ,5.0,24.0,2,16.0912421,108.2445524, Ngô Quyền,Thọ Quang,sơn trà,2.933658679472832,4.9607252355791065,5.8533697970942535
37,37,37,37,37,37,3.15,100.0,Không,Nhà trong hẻm,Giấy tờ hợp lệ,4.5,22.0,2,16.0723048,108.1472133, Đồng Kè,Hòa Khánh Bắc,liên chiểu,10.766967754382824,7.034231089625177,6.163786505545406
38,38,38,38,38,38,1.85,120.0,Không,Nhà trong hẻm,Giấy tờ hợp lệ,5.0,24.0,1,16.0031472,108.1876854, Nguyễn Như Đỗ,Hòa Thọ Tây,cẩm lệ,9.366062087864112,6.759358797217937,6.194398151067429
39,39,39,39,39,39,3.69,70.0,Không,Nhà trong hẻm,Giấy tờ hợp lệ,4.5,16.0,2,16.0583615,108.1683251, Tô Hiệu,Hòa Minh,liên chiểu,8.507768670810812,4.637246247012794,3.676714756835964
40,40,40,40,40,40,3.65,90.0,Không,Nhà trong hẻm,Giấy tờ hợp lệ,5.0,18.0,3,16.0392505,108.1852671, Tôn Đản,Hòa Phát,cẩm lệ,7.243350763046908,3.6151117691300856,2.723808498087963
41,41,41,41,41,41,2.83,110.0,Không,Nhà trong hẻm,Giấy tờ hợp lệ,5.0,22.0,2,16.0756243,108.2319079, Ngô Quyền,An Hải Bắc,sơn trà,2.0522137939375127,2.796568797472516,3.733505998421484
42,42,42,42,42,42,1.49,36.0,Tây,Nhà trong hẻm,Giấy tờ hợp lệ,4.1,8.78048780487805,2,16.0751042,108.2073603, Trần Cao Vân,Tam Thuận,thanh khê,4.446100836465397,1.7687584978483872,2.042094465794425
43,43,43,43,43,43,5.35,125.0,Không,Nhà mặt tiền,Giấy tờ hợp lệ,5.0,25.0,2,16.0138538,108.1958513, Cách Mạng Tháng 8,Hòa Thọ Đông,cẩm lệ,7.905836607919737,5.343723328342092,4.853666284353989
44,44,44,44,44,44,3.9,100.0,Không,Nhà mặt tiền,Giấy tờ hợp lệ,5.0,20.0,2,16.0003372,108.2132929, Lỗ Giáng 6,Hòa Xuân,cẩm lệ,8.029127266028906,6.567619091972675,6.3962359635519785
45,45,45,45,45,45,6.35,110.0,Không,Nhà mặt tiền,Giấy tờ hợp lệ,5.5,20.0,3,16.0172054,108.2084021, Phan Văn Trị,Khuê Trung,cẩm lệ,6.737453259158979,4.711399097584559,4.470048515679327
46,46,46,46,46,46,5.8,100.0,Không,Nhà mặt tiền,Giấy tờ hợp lệ,5.0,20.0,2,16.0140539,108.2065002, Đặng Văn Ngữ,Khuê Trung,cẩm lệ,7.137386580316552,5.077269085625017,4.794029631415255
47,47,47,47,47,47,8.5,100.0,Không,Nhà mặt tiền,Giấy tờ hợp lệ,5.0,20.0,4,16.025345,108.2121536, Bình Hòa 4,Khuê Trung,cẩm lệ,5.787561027724534,3.798302738258644,3.6702146649684217
48,48,48,48,48,48,6.0,110.0,Không,Nhà mặt tiền,Giấy tờ hợp lệ,5.0,22.0,1,16.0063777,108.2078822, Phạm Hùng,Hòa Xuân,cẩm lệ,7.742359078689389,5.910516326332974,5.653504684737835
49,49,49,49,49,49,4.15,80.0,Không,Nhà mặt tiền,Giấy tờ hợp lệ,5.0,16.0,3,16.0221996,108.2129834, Bình Hòa 14,Khuê Trung,cẩm lệ,5.999896146427057,4.148459751680958,4.0292800065276175
50,50,50,50,50,50,4.9,100.0,Không,Nhà mặt tiền,Giấy tờ hợp lệ,5.0,20.0,3,16.0214579,108.1974153, Nguyễn Khoa Chiêm,Hòa Thọ Đông,cẩm lệ,7.202834201160636,4.493786762439407,3.996799432333303
51,51,51,51,51,51,7.5,75.0,Không,Nhà mặt tiền,Giấy tờ hợp lệ,5.7,13.0,2,16.0241244,108.2171347, Cách Mạng Tháng 8,Khuê Trung,cẩm lệ,5.562607019073472,3.976662923297844,3.9759391368219577
52,52,52,52,52,52,5.0,120.0,Không,Nhà mặt tiền,Giấy tờ hợp lệ,5.0,24.0,3,16.0198819,108.1968795, Hoàng Đạo Thúy,Hòa Thọ Đông,cẩm lệ,7.362495333947553,4.67730194197463,4.177651059850487
53,53,53,53,53,53,4.8,67.0,Không,Nhà mặt tiền,Giấy tờ hợp lệ,11.07,6.91,4,16.0227751,108.200433, Trường Chinh,Hòa Thọ Đông,cẩm lệ,6.865870059732111,4.254857679806927,3.818833798247972
54,54,54,54,54,54,18.8,170.0,Đông,Nhà mặt tiền,Giấy tờ hợp lệ,5.0,34.0,4,16.0524115,108.2090289, Nguyễn Hữu Thọ,Hòa Thuận Tây,hải châu,4.346895782169306,0.8500454561579067,0.8639978075900642
55,55,55,55,55,55,4.4,95.0,Không,Nhà mặt tiền,Giấy tờ hợp lệ,5.0,19.0,3,16.0212756,108.2004817, Bùi Vịnh,Hòa Thọ Đông,cẩm lệ,6.975815789478457,4.412896672312063,3.984146342579829
56,56,56,56,56,56,3.9,90.0,Không,Nhà mặt tiền,Giấy tờ hợp lệ,5.0,18.0,3,16.0212756,108.2004817, Bùi Vịnh,Hòa Thọ Đông,cẩm lệ,6.975815789478457,4.412896672312063,3.984146342579829
57,57,57,57,57,57,3.55,75.0,Không,Nhà mặt tiền,Giấy tờ hợp lệ,5.0,15.0,2,16.0209382,108.2085527, Nguyễn Nho Túy,Khuê Trung,cẩm lệ,6.408548915209292,4.2982891399878405,4.0637579306465055
58,58,58,58,58,58,14.0,90.0,Không,Nhà mặt tiền,Giấy tờ hợp lệ,7.0,15.0,2,16.0138538,108.1958513, Cách Mạng Tháng 8,Hòa Thọ Đông,cẩm lệ,7.905836607919737,5.343723328342092,4.853666284353989
59,59,59,59,59,59,24.0,50.0,Không,Nhà mặt tiền,Giấy tờ hợp lệ,15.0,17.0,2,16.0086953,108.2188325, Võ Chí Công,Hòa Xuân,cẩm lệ,6.936356435136482,5.692597833674528,5.641274190414564
60,60,60,60,60,60,3.85,126.0,Không,Nhà mặt tiền,Giấy tờ hợp lệ,6.0,21.0,2,16.0112356,108.2002191, Bình Thái 4,Hòa Thọ Đông,cẩm lệ,7.804217058592689,5.496878681377828,5.095032287792605
61,61,61,61,61,61,2.85,100.0,Không,Nhà mặt tiền,Giấy tờ hợp lệ,5.0,20.0,2,15.9794185,108.2192149, Liêm Lạc 15,Hòa Xuân,cẩm lệ,9.932408855337153,8.916987728385154,8.789450540140587
62,62,62,62,62,62,4.3,90.0,Không,Nhà mặt tiền,Giấy tờ hợp lệ,5.0,18.0,3,16.0190372,108.2057322, Trương Quang Giao,Khuê Trung,cẩm lệ,6.765379771239815,4.540180098492836,4.237713596545324
63,63,63,63,63,63,3.3,100.0,Không,Nhà mặt tiền,Giấy tờ hợp lệ,5.0,20.0,2,15.9992464,108.2116823, Đô Đốc Tuyết,Hòa Xuân,cẩm lệ,8.215806830890585,6.685949227526858,6.487185031815344
64,64,64,64,64,64,11.0,140.0,Không,Nhà mặt tiền,Giấy tờ hợp lệ,5.9,25.0,1,16.0241244,108.2171347, Cách Mạng Tháng 8,Khuê Trung,cẩm lệ,5.562607019073472,3.976662923297844,3.9759391368219577
65,65,65,65,65,65,4.2,145.0,Không,Nhà mặt tiền,Giấy tờ hợp lệ,6.0,24.0,3,16.0117393,108.1982179, Nguyễn Nhàn,Hòa Thọ Đông,cẩm lệ,7.903302811120536,5.494613663834648,5.055019746732804
66,66,66,66,66,66,4.3,135.0,Không,Nhà mặt tiền,Giấy tờ hợp lệ,5.4,25.0,2,16.0154633,108.2036738, Bình Thái 3,Hòa Thọ Đông,cẩm lệ,7.208361744855669,4.965169458553947,4.621729814299202
67,67,67,67,67,67,4.9,125.0,Không,Nhà mặt tiền,Giấy tờ hợp lệ,5.0,25.0,2,16.0240456,108.2103341, Nguyễn Trung Ngạn,Khuê Trung,cẩm lệ,6.023948747153598,3.944180730095847,3.761377119367541
68,68,68,68,68,68,20.0,310.0,Không,Nhà mặt tiền,Giấy tờ hợp lệ,11.2,26.0,3,16.0241244,108.2171347, Cách Mạng Tháng 8,Khuê Trung,cẩm lệ,5.562607019073472,3.976662923297844,3.9759391368219577
69,69,69,69,69,69,5.4,90.0,Không,Nhà mặt tiền,Giấy tờ hợp lệ,5.0,18.0,2,16.0277607,108.2121296, Trần Kim Bảng,Khuê Trung,cẩm lệ,5.5899031392691,3.5309748773522127,3.413365163948269
70,70,70,70,70,70,3.9,120.0,Không,Nhà mặt tiền,Giấy tờ hợp lệ,5.0,24.0,2,16.0212756,108.2004817, Bùi Vịnh,Hòa Thọ Đông,cẩm lệ,6.975815789478457,4.412896672312063,3.984146342579829
71,71,71,71,71,71,4.1,100.0,Không,Nhà mặt tiền,Giấy tờ hợp lệ,5.0,20.0,2,16.0203761,108.204959, Trần Huy Liệu,Khuê Trung,cẩm lệ,6.710885434355904,4.406181976639599,4.084206801768412
72,72,72,72,72,72,3.75,100.0,Không,Nhà mặt tiền,Giấy tờ hợp lệ,5.0,20.0,3,15.9992464,108.2116823, Đô Đốc Tuyết,Hòa Xuân,cẩm lệ,8.215806830890585,6.685949227526858,6.487185031815344
73,73,73,73,73,73,2.85,100.0,Không,Nhà mặt tiền,Giấy tờ hợp lệ,5.0,20.0,2,15.9826151,108.2196458, Liêm Lạc 21,Hòa Xuân,cẩm lệ,9.58169391243945,8.56926792618709,8.453068542238507
74,74,74,74,74,74,2.85,60.0,Không,Nhà mặt tiền,Giấy tờ hợp lệ,4.0,15.0,1,16.0249026,108.2137169, Bình Hòa 2,Khuê Trung,cẩm lệ,5.717296127067109,3.8532678442169193,3.766419272085646
75,75,75,75,75,75,2.8,90.0,Không,Nhà trong hẻm,Giấy tờ hợp lệ,5.0,18.0,2,16.0151267,108.2044735, Ông Ích Đường,Hòa Thọ Đông,cẩm lệ,7.181439370379863,4.987992051813158,4.661734955715325
76,76,76,76,76,76,3.15,110.0,Không,Nhà trong hẻm,Giấy tờ hợp lệ,9.0,12.0,1,16.0138538,108.1958513, Cách Mạng Tháng 8,Hòa Thọ Đông,cẩm lệ,7.905836607919737,5.343723328342092,4.853666284353989
77,77,77,77,77,77,6.7,110.0,Không,Nhà mặt tiền,Giấy tờ hợp lệ,5.0,22.0,3,16.0063777,108.2078822, Phạm Hùng,Hòa Xuân,cẩm lệ,7.742359078689389,5.910516326332974,5.653504684737835
78,78,78,78,78,78,2.25,78.0,Không,Nhà trong hẻm,Giấy tờ hợp lệ,6.0,13.0,2,16.0154645,108.1976131, Phạm Viết Chánh,Hòa Thọ Đông,cẩm lệ,7.64656835515986,5.116476229020093,4.651864122132446
79,79,79,79,79,79,2.2,76.0,Không,Nhà trong hẻm,Giấy tờ hợp lệ,4.6,16.0,2,16.0151267,108.2044735, Ông Ích Đường,Hòa Thọ Đông,cẩm lệ,7.181439370379863,4.987992051813158,4.661734955715325
80,80,80,80,80,80,2.1,84.0,Không,Nhà trong hẻm,Giấy tờ hợp lệ,4.0,21.0,2,16.0241244,108.2171347, Cách Mạng Tháng 8,Khuê Trung,cẩm lệ,5.562607019073472,3.976662923297844,3.9759391368219577
81,81,81,81,81,81,2.25,100.0,Không,Nhà trong hẻm,Giấy tờ hợp lệ,5.0,20.0,1,16.0205599,108.2060848, Bùi Xương Trạch,Khuê Trung,cẩm lệ,6.614557995152835,4.368088406493078,4.072956692338711
82,82,82,82,82,82,1.5,66.0,Không,Nhà trong hẻm,Giấy tờ hợp lệ,4.0,16.5,1,16.0137464,108.2044932, Bình Thái 1,Hòa Thọ Đông,cẩm lệ,7.297900694485221,5.138657187986884,4.814435111087388
83,83,83,83,83,83,2.25,80.0,Không,Nhà trong hẻm,Giấy tờ hợp lệ,6.0,13.5,2,16.0172805,108.201628, Triệu Quốc Đạt,Hòa Thọ Đông,cẩm lệ,7.204491664628993,4.811174414109968,4.420774678185881
84,84,84,84,84,84,2.05,56.0,Không,Nhà trong hẻm,Giấy tờ hợp lệ,7.0,8.0,2,16.0241244,108.2171347, Cách Mạng Tháng 8,Khuê Trung,cẩm lệ,5.562607019073472,3.976662923297844,3.9759391368219577
85,85,85,85,85,85,15.0,6.0,Không,Nhà mặt tiền,Không có,5.5,12.0,5,16.0604012,108.2170183, Hoàng Diệu,Nam Dương,hải châu,3.304327533355402,0.5810390622936686,1.5756969397271998
86,86,86,86,86,86,7.2,78.0,Không,Nhà mặt tiền,Không có,5.5,14.5,3,16.0347762,108.217907, Lê Thị Hồng Gấm,Hòa Cường Nam,hải châu,4.600617116849255,2.8346870991995337,2.971038187331273
87,87,87,87,87,87,7.3,66.0,Không,Nhà mặt tiền,Không có,4.1,16.0,3,16.066751,108.2418371, Phước Mỹ 3,Phước Mỹ,sơn trà,0.6448893017958006,3.3247017190452794,4.322154753588128
88,88,88,88,88,88,6.5,68.0,Không,Nhà mặt tiền,Không có,5.0,13.5,3,16.0482538,108.2223433, Tống Phước Phổ,Hòa Cường Bắc,hải châu,3.265485097425974,1.7047286767759406,2.327590026306745
89,89,89,89,89,89,16.5,125.0,Không,Nhà mặt tiền,Không có,5.0,25.0,4,16.0407896,108.2111494, Nguyễn Hữu Thọ,Hòa Cường Bắc,hải châu,4.72051048174597,2.0894873395519493,2.0319746507239835
90,90,90,90,90,90,14.2,125.0,Không,Nhà mặt tiền,Không có,5.0,24.0,4,16.0577109,108.2071212, Nguyễn Tri Phương,Thạc Gián,thanh khê,4.398151517273825,0.5298745855721378,0.4799047847964753
91,91,91,91,91,91,3.995,70.0,Không,Nhà mặt tiền,Không có,5.0,14.0,2,16.0732069,108.1728305, Dương Bích Liên,Hòa Minh,liên chiểu,8.047455678927445,4.41483061291276,3.649883980986675
92,92,92,92,92,92,16.0,100.0,Không,Nhà mặt tiền,Không có,5.0,20.0,5,16.0376383,108.2228608, Phan Đăng Lưu,Hòa Cường Bắc,hải châu,4.009143855461245,2.717152216121649,3.060147884876638
93,93,93,93,93,93,100.0,450.0,Không,Nhà mặt tiền,Không có,15.0,30.0,14,16.0524115,108.2090289, Nguyễn Hữu Thọ,Hòa Thuận Tây,hải châu,4.346895782169306,0.8500454561579067,0.8639978075900642
94,94,94,94,94,94,9.0,11.0,Không,Nhà mặt tiền,Không có,5.0,22.0,3,16.0327176,108.2293459, Nguyễn Lộ Trạch,Hòa Cường Nam,hải châu,4.058209094802376,3.532976894134707,3.937227333857682
95,95,95,95,95,95,13.0,90.0,Không,Nhà mặt tiền,Không có,4.5,20.0,6,16.072439,108.1962625, Nguyễn Tất Thành,Xuân Hà,thanh khê,5.550718722118796,2.1692806174809904,1.818411033811475
96,96,96,96,96,96,12.0,135.0,Không,Nhà mặt tiền,Không có,5.37,25.0,2,16.0382864,108.2213353, Núi Thành,Hòa Cường Bắc,hải châu,4.066315876444203,2.583237451838292,2.89481433902592
97,97,97,97,97,97,5.8,63.0,Không,Nhà trong hẻm,Không có,4.2,15.0,4,16.0602491,108.2136695, Nguyễn Văn Linh,Vĩnh Trung,thanh khê,3.6613011326956393,0.2263800987938418,1.2243334529593215
98,98,98,98,98,98,9.8,105.0,Không,Nhà trong hẻm,Giấy tờ hợp lệ,10.246950765959598,10.246950765959598,5,16.078156,108.2150772, Lý Tự Trọng,Thanh Bình,hải châu,3.771723411774994,2.0788740580823646,2.670660212424873
99,99,99,99,99,99,4.09,55.0,Không,Nhà trong hẻm,Giấy tờ hợp lệ,5.0,11.0,1,16.0596195,108.2093288, Nguyễn Văn Linh,Thạc Gián,thanh khê,4.13094936696028,0.2475364908161718,0.7609430218852311
100,100,100,100,100,100,4.5,55.0,Không,Nhà trong hẻm,Không có,5.0,11.0,2,16.0554131,108.1876616, Trần Xuân Lê,An Khê,thanh khê,6.493299841923051,2.6087538712694984,1.6178394636779412
101,101,101,101,101,101,5.3,125.0,Không,Nhà trong hẻm,Không có,7.8,16.0,1,16.0196547,108.2034422, Ông Ích Đường,Khuê Trung,cẩm lệ,6.880027276664343,4.513698798212869,4.157485356279752
102,102,102,102,102,102,8.3,8.0,Không,Nhà trong hẻm,Không có,4.5,18.4,3,16.0648993,108.2240258, Thái Phiên,Phước Ninh,hải châu,2.516938226816495,1.4461440412470303,2.438565416272937
103,103,103,103,103,103,6.5,106.0,Không,Nhà trong hẻm,Không có,7.0,15.0,1,16.0522316,108.2404204, An Thượng 24,Mỹ An,ngũ hành sơn,1.5949883063973962,3.1874459659710994,4.077481194437008
104,104,104,104,104,104,7.1,143.0,Không,Nhà trong hẻm,Không có,8.0,18.0,2,16.0757672,108.2135372, Ông Ích Khiêm,Thanh Bình,hải châu,3.8330059149601023,1.7932792754357365,2.3594096584607738
105,105,105,105,105,105,7.2,68.0,Không,Nhà mặt tiền,Giấy tờ hợp lệ,4.5,15.3,4,16.078156,108.2150772, Lý Tự Trọng,Thanh Bình,hải châu,3.771723411774994,2.0788740580823646,2.670660212424873
106,106,106,106,106,106,16.0,170.0,Không,Nhà mặt tiền,Không có,6.0,20.0,2,16.0409045,108.216236, Ỷ Lan Nguyên Phi,Hòa Cường Bắc,hải châu,4.274552178367,2.1335238989701337,2.316772417097155
107,107,107,107,107,107,24.45,123.0,Không,Nhà mặt tiền,Không có,7.1,18.0,2,16.0493796,108.2207225, Núi Thành,Hòa Thuận Đông,hải châu,3.3445135163991093,1.4966070293743554,2.117951390785364
108,108,108,108,108,108,3.45,56.0,Không,Nhà mặt tiền,Không có,4.0,14.0,2,16.0311397,108.2273853, Hóa Sơn 2,Hòa Cường Nam,hải châu,4.313258881985078,3.5781123240472743,3.914724933327211
109,109,109,109,109,109,23.5,155.0,Không,Nhà mặt tiền,Giấy tờ hợp lệ,6.0,24.0,1,16.062005,108.2217525, Cô Giang,Phước Ninh,hải châu,2.778604223800476,1.1124147320007802,2.109965120504508
110,110,110,110,110,110,15.7,80.0,Không,Nhà mặt tiền,Giấy tờ hợp lệ,5.0,16.0,3,16.0486433,108.2485294, An Thượng 1,Mỹ An,ngũ hành sơn,1.8009277618289568,4.131352317892098,4.998604841736438
111,111,111,111,111,111,14.7,95.0,Không,Nhà mặt tiền,Không có,7.5,12.7,4,16.0792623,108.2219154, Đặng Tử Kính,Thạch Thang,hải châu,3.170417514982586,2.431241854470928,3.19271817031909
112,112,112,112,112,112,17.0,121.0,Không,Nhà mặt tiền,Không có,5.0,24.2,3,16.0756928,108.2429073, Hồ Nghinh,Phước Mỹ,sơn trà,1.2944613220717778,3.786414242544354,4.766565448596511
113,113,113,113,113,113,6.1,34.0,Không,Nhà mặt tiền,Không có,9.0,286.0,2,16.0137464,108.2044932, Bình Thái 1,Hòa Thọ Đông,cẩm lệ,7.297900694485221,5.138657187986884,4.814435111087388
114,114,114,114,114,114,7.65,90.0,Không,Nhà mặt tiền,Không có,4.5,20.0,1,16.0409045,108.216236, Ỷ Lan Nguyên Phi,Hòa Cường Bắc,hải châu,4.274552178367,2.1335238989701337,2.316772417097155
115,115,115,115,115,115,31.0,78.0,Không,Nhà mặt tiền,Giấy tờ hợp lệ,10.0,29.0,3,16.0577109,108.2071212, Nguyễn Tri Phương,Thạc Gián,thanh khê,4.398151517273825,0.5298745855721378,0.4799047847964753
116,116,116,116,116,116,31.0,78.0,Không,Nhà mặt tiền,Không có,9.6,29.0,3,16.0577109,108.2071212, Nguyễn Tri Phương,Thạc Gián,thanh khê,4.398151517273825,0.5298745855721378,0.4799047847964753
117,117,117,117,117,117,24.0,190.0,Không,Nhà mặt tiền,Không có,10.0,19.0,2,16.0320034,108.2149433, Xô Viết Nghệ Tĩnh,Hòa Cường Nam,hải châu,5.041569091408144,3.081417486238519,3.0840291537183595
118,118,118,118,118,118,8.0,100.0,Không,Nhà mặt tiền,Không có,5.0,20.0,4,16.0211542,108.2065983, Hà Tông Quyền,Khuê Trung,cẩm lệ,6.528920245396716,4.295695938128101,4.0128531176394535
119,119,119,119,119,119,6.8,81.0,Không,Nhà mặt tiền,Không có,4.5,18.0,3,16.0379106,108.2149809, Nguyễn Phẩm,Hòa Cường Bắc,hải châu,4.588953251242313,2.433784662982104,2.510240200227813
120,120,120,120,120,120,14.5,106.0,Không,Nhà mặt tiền,Không có,6.2,17.0,3,16.0382864,108.2213353, Núi Thành,Hòa Cường Bắc,hải châu,4.066315876444203,2.583237451838292,2.89481433902592
121,121,121,121,121,121,13.0,90.0,Không,Nhà mặt tiền,Không có,5.0,18.0,3,16.0500842,108.2170537, Lê Đình Thám,Hòa Thuận Đông,hải châu,3.6513084003744862,1.2081348459811625,1.7301866778981936
122,122,122,122,122,122,10.5,174.0,Không,Nhà mặt tiền,Không có,9.5,20.0,3,16.0780214,108.1466968, Phạm Văn Tráng,Hòa Khánh Bắc,liên chiểu,10.88816723123961,7.239734826625399,6.415809160926546
123,123,123,123,123,123,9.5,9.0,Không,Nhà mặt tiền,Không có,11.0,19.0,1,16.0608503,108.1882335, Cù Chính Lan,Hòa Khê,thanh khê,6.36249508351294,2.508154722107072,1.5957250726212269
124,124,124,124,124,124,22.3,55.0,Không,Nhà mặt tiền,Không có,12.75,20.0,4,16.0418324,108.2478355, Trần Văn Dư,Mỹ An,ngũ hành sơn,2.551740469057354,4.34678982241341,5.124626319899286
125,125,125,125,125,125,11.0,198.0,Không,Nhà mặt tiền,Không có,11.0,19.0,3,16.0172054,108.2084021, Phan Văn Trị,Khuê Trung,cẩm lệ,6.737453259158979,4.711399097584559,4.470048515679327
126,126,126,126,126,126,13.0,84.0,Không,Nhà mặt tiền,Không có,4.5,19.0,3,16.0572971,108.2189031, Phan Châu Trinh,Phước Ninh,hải châu,3.178206343347473,0.8200167881529893,1.7375190636934414
127,127,127,127,127,127,22.1,7.0,Không,Nhà mặt tiền,Không có,9.0,23.0,2,16.0490814,108.2194306, Duy Tân,Hòa Thuận Đông,hải châu,3.480357239690016,1.4375325654049007,2.0072219405627982
128,128,128,128,128,128,4.9,68.0,Không,Nhà mặt tiền,Giấy tờ hợp lệ,4.5,15.0,2,16.0789946,108.2149183, Hải Hồ,Thanh Bình,hải châu,3.824309318250638,2.167457805734444,2.7433922900828707
129,129,129,129,129,129,6.2,90.0,Không,Nhà mặt tiền,Không có,5.0,18.0,3,16.0585706,108.2054324, Nguyễn Văn Linh,Hòa Thuận Tây,hải châu,4.5604363210459615,0.6753726808198405,0.3317920992642868
130,130,130,130,130,130,5.3,100.0,Không,Nhà mặt tiền,Không có,5.0,20.0,1,16.0507294,108.1792194, Nguyễn Đình Tứ,Hòa An,cẩm lệ,7.477510679119202,3.607527805824854,2.6095606978485524
131,131,131,131,131,131,13.7,31.0,Không,Nhà mặt tiền,Không có,8.5,27.0,1,16.0418324,108.2478355, Trần Văn Dư,Mỹ An,ngũ hành sơn,2.551740469057354,4.34678982241341,5.124626319899286
132,132,132,132,132,132,5.9,87.0,Không,Nhà mặt tiền,Không có,3.8,17.0,2,16.0674661,108.1932536, Thái Thị Bôi,Chính Gián,thanh khê,5.816508032438447,2.148548751079927,1.5167105211395546
133,133,133,133,133,133,14.0,98.0,Không,Nhà mặt tiền,Không có,5.1,17.0,3,16.077247,108.2196748, Lý Tự Trọng,Thạch Thang,hải châu,3.280930062097949,2.126937362188647,2.8679327567243256
134,134,134,134,134,134,11.0,76.0,Không,Nhà mặt tiền,Không có,7.0,11.0,3,16.0810631,108.217488, Lương Ngọc Quyến,Thuận Phước,hải châu,3.680746407541048,2.4490498089336112,3.078691608961818
135,135,135,135,135,135,5.3,8.0,Không,Nhà mặt tiền,Không có,5.0,16.5,3,16.0378612,108.2145629, Ngô Thị Liễu,Hòa Cường Bắc,hải châu,4.626545701464605,2.4330419184745744,2.4917462112960544
136,136,136,136,136,136,55.0,700.0,Không,Nhà mặt tiền,Không có,15.0,46.0,1,16.0579948,108.2437589, Tô Hiến Thành,Phước Mỹ,sơn trà,0.8640965818913763,3.4416108154783465,4.397996770568794
137,137,137,137,137,137,7.2,126.0,Không,Nhà mặt tiền,Không có,5.0,25.0,3,16.0943145,108.2295944, Hồ Sĩ Tân,Nại Hiên Đông,sơn trà,3.7804953192579465,4.288439754330349,5.015352797795058
138,138,138,138,138,138,7.0,50.0,Không,Nhà mặt tiền,Không có,4.0,13.0,3,16.0631819,108.1848702, Huỳnh Ngọc Huệ,An Khê,thanh khê,6.709270586723101,2.890895199502064,2.01527528262713
139,139,139,139,139,139,69.0,404.0,Không,Nhà mặt tiền,Không có,20.0,20.0,2,16.0656447,108.2017156, Điện Biên Phủ,Chính Gián,thanh khê,4.904825881595817,1.25131956440354,0.938080530690646
140,140,140,140,140,140,14.0,77.0,Không,Nhà mặt tiền,Không có,4.26,18.2,4,16.0572971,108.2189031, Phan Châu Trinh,Phước Ninh,hải châu,3.178206343347473,0.8200167881529893,1.7375190636934414
141,141,141,141,141,141,15.0,118.0,Không,Nhà mặt tiền,Không có,6.0,16.0,1,16.0784291,108.2194114, Lê Lợi,Thạch Thang,hải châu,3.3627667252479254,2.236583708847542,2.953000530041072
142,142,142,142,142,142,6.5,74.0,Không,Nhà mặt tiền,Không có,5.86,15.0,4,16.0834178,108.2180009, Ngô Chi Lan,Thuận Phước,hải châu,3.768069609815434,2.7150264062480303,3.33143385726721
143,143,143,143,143,143,6.5,125.0,Không,Nhà mặt tiền,Không có,5.0,25.0,2,16.0899243,108.2356287, Khúc Hạo,Nại Hiên Đông,sơn trà,3.049734169809512,4.218831609521078,5.053577315996597
144,144,144,144,144,144,12.0,69.0,Không,Nhà mặt tiền,Không có,4.0,18.0,1,16.0679602,108.2175171, Hùng Vương,Hải Châu II,hải châu,3.2312515821180057,1.112513799414772,1.9845936689204056
145,145,145,145,145,145,17.0,170.0,Không,Nhà mặt tiền,Không có,5.0,34.0,5,16.0245072,108.2091787, Nguyễn Hữu Thọ,Khuê Trung,cẩm lệ,6.068675813813078,3.89953512871535,3.686178641284242
146,146,146,146,146,146,8.9,9.0,Không,Nhà mặt tiền,Không có,4.5,20.0,1,16.0353736,108.2143518, Huỳnh Tấn Phát,Hòa Cường Bắc,hải châu,4.82571608044144,2.703751123259102,2.721549913201162
147,147,147,147,147,147,7.45,70.0,Không,Nhà mặt tiền,Không có,5.0,14.0,3,16.0449981,108.2167919, Nguyễn Sơn Hà,Hòa Cường Bắc,hải châu,3.959417285308429,1.7141235280933038,2.0281595984873984
148,148,148,148,148,148,17.0,77.0,Không,Nhà mặt tiền,Không có,15.0,18.0,1,16.0356237,108.2104035, Lý Nhân Tông,Khuê Trung,cẩm lệ,5.127151981943601,2.663774177670541,2.528947566180554
149,149,149,149,149,149,14.5,10.0,Không,Nhà mặt tiền,Không có,6.0,17.0,6,16.0364519,108.246453, Khuê Mỹ Đông 15,Khuê Mỹ,ngũ hành sơn,3.149140248448588,4.52497282112385,5.218808711059363
150,150,150,150,150,150,39.0,180.0,Không,Nhà mặt tiền,Không có,9.0,20.0,10,16.0555583,108.2458319, An Thượng 26,Mỹ An,ngũ hành sơn,1.0488698820230016,3.686606765375783,4.622649331913182
151,151,151,151,151,151,10.0,105.0,Không,Nhà mặt tiền,Không có,5.0,25.0,3,16.0421634,108.2109722, Đuờng Vũ Hữu,Hòa Cường Bắc,hải châu,4.652248316245228,1.9381241680788883,1.888182653617646
152,152,152,152,152,152,10.0,105.0,Không,Nhà mặt tiền,Giấy tờ hợp lệ,5.0,21.0,3,16.0421634,108.2109722, Đuờng Vũ Hữu,Hòa Cường Bắc,hải châu,4.652248316245228,1.9381241680788883,1.888182653617646
153,153,153,153,153,153,9.0,70.0,Không,Nhà mặt tiền,Không có,5.0,14.0,3,16.0253941,108.2219221, Lê Thanh Nghị,Hòa Cường Nam,hải châu,5.15968931167554,3.948814826453508,4.080164080824873
154,154,154,154,154,154,30.0,125.0,Không,Nhà mặt tiền,Không có,5.0,25.0,6,16.0728578,108.2314403, Phạm Văn Đồng,An Hải Bắc,sơn trà,1.935980386261936,2.5727102848008987,3.532021832124128
155,155,155,155,155,155,6.0,75.0,Không,Nhà mặt tiền,Không có,5.0,15.0,2,16.0753885,108.2405825, Trần Thanh Mại,An Hải Bắc,sơn trà,1.3802865231515462,3.551928548907985,4.528059934009785
156,156,156,156,156,156,18.0,90.0,Không,Nhà mặt tiền,Không có,5.0,18.0,2,16.0484004,108.2475511, An Thượng 2,Mỹ An,ngũ hành sơn,1.8247465342723463,4.039669643640456,4.901147063214384
157,157,157,157,157,157,22.0,144.0,Không,Nhà mặt tiền,Không có,9.0,16.0,2,16.0427332,108.2428481, Bà Huyện Thanh Quan,Mỹ An,ngũ hành sơn,2.50293418993956,3.829086990259891,4.588877644417808
158,158,158,158,158,158,20.5,8.0,Không,Nhà mặt tiền,Không có,12.0,18.0,2,16.0456361,108.2469406, Mỹ Đa Đông 12,Mỹ An,ngũ hành sơn,2.1316348375627765,4.083821479355205,4.9080305941606985
159,159,159,159,159,159,15.0,10.0,Không,Nhà mặt tiền,Không có,5.0,20.5,2,16.0483631,108.2476662, Ngô Thì Sĩ,Mỹ An,ngũ hành sơn,1.8289173674794288,4.0526589639019885,4.914039350201195
160,160,160,160,160,160,79.0,169.0,Không,Nhà mặt tiền,Không có,6.7,24.0,2,16.0693686,108.2250334, Bạch Đằng,Hải Châu I,hải châu,2.459543293465843,1.7905561800065912,2.745247382688979
161,161,161,161,161,161,9.5,50.0,Không,Nhà mặt tiền,Không có,4.5,11.0,5,16.0524115,108.2090289, Nguyễn Hữu Thọ,Hòa Thuận Tây,hải châu,4.346895782169306,0.8500454561579067,0.8639978075900642
162,162,162,162,162,162,17.0,97.0,Không,Nhà mặt tiền,Không có,4.0,24.0,3,16.0655695,108.2235849, Trần Phú,Phước Ninh,hải châu,2.56521165124785,1.4352441558965667,2.4217233289158098
163,163,163,163,163,163,15.0,86.85547250981791,Không,Nhà mặt tiền,Không có,10.0,20.0,3,16.0278331,108.2456894, Trần Hoành,Khuê Mỹ,ngũ hành sơn,4.10552862853,5.067891080145078,5.636546127978336
164,164,164,164,164,164,9.0,14.0,Không,Nhà mặt tiền,Không có,5.93,23.0,1,16.0572491,108.2429078, Nguyễn Duy Hiệu,An Hải Đông,sơn trà,0.9805890016436823,3.356247217313551,4.306093963796193
165,165,165,165,165,165,7.5,90.0,Không,Nhà mặt tiền,Không có,5.0,18.0,3,16.042319,108.2140318, Hoàng Thúc Trâm,Hòa Cường Bắc,hải châu,4.37052667335598,1.936544704351804,2.0487564401690914
166,166,166,166,166,166,25.0,313.0,Không,Nhà mặt tiền,Không có,9.6,23.0,2,16.0427332,108.2428481, Bà Huyện Thanh Quan,Mỹ An,ngũ hành sơn,2.50293418993956,3.829086990259891,4.588877644417808
167,167,167,167,167,167,19.5,137.0,Không,Nhà mặt tiền,Không có,7.0,23.0,3,16.0382864,108.2213353, Núi Thành,Hòa Cường Bắc,hải châu,4.066315876444203,2.583237451838292,2.89481433902592
168,168,168,168,168,168,35.0,126.0,Không,Nhà mặt tiền,Không có,7.0,18.0,7,16.0715117,108.239114, Morrison,An Hải Bắc,sơn trà,1.162491166030919,3.21856339831676,4.208574901738493
169,169,169,169,169,169,5.9,100.0,Không,Nhà mặt tiền,Không có,5.0,20.0,3,16.0726972,108.1559694, Phú Thạnh 4,Hòa Minh,liên chiểu,9.836776839911536,6.12894362712628,5.281943083525337
170,170,170,170,170,170,28.0,151.0,Không,Nhà mặt tiền,Không có,6.5,24.0,8,16.0493796,108.2207225, Núi Thành,Hòa Thuận Đông,hải châu,3.3445135163991093,1.4966070293743554,2.117951390785364
171,171,171,171,171,171,55.0,150.0,Không,Nhà mặt tiền,Giấy tờ hợp lệ,7.0,24.0,2,16.0602491,108.2136695, Nguyễn Văn Linh,Nam Dương,hải châu,3.6613011326956393,0.2263800987938418,1.2243334529593215
172,172,172,172,172,172,20.0,90.0,Không,Nhà mặt tiền,Không có,5.0,18.0,4,16.0490211,108.2463704, An Thượng 4,Mỹ An,ngũ hành sơn,1.760580336503864,3.89838179998538,4.763839516255708
173,173,173,173,173,173,6.25,74.0,Không,Nhà mặt tiền,Không có,4.5,15.0,2,16.0336171,108.2117836, Bàu Tràm 1,Khuê Trung,cẩm lệ,5.159766855482675,2.88256542502206,2.7879148199885933
174,174,174,174,174,174,8.0,9.0,Không,Nhà mặt tiền,Không có,5.38,17.29,1,16.0816887,108.2129154, Thanh Hải,Thanh Bình,hải châu,4.145718839095633,2.4408510205548475,2.9216352990440764
175,175,175,175,175,175,7.3,108.0,Không,Nhà mặt tiền,Không có,4.5,15.25,4,16.0817169,108.2140167, Thanh Long,Thanh Bình,hải châu,4.0421764395950905,2.4533603413311824,2.9707265074799136
176,176,176,176,176,176,7.5,96.0,Không,Nhà mặt tiền,Không có,5.0,19.3,3,16.0340279,108.2086379, Phạm Phú Tiết,Khuê Trung,cẩm lệ,5.3852071799055325,2.855217323985112,2.6445224011386603
177,177,177,177,177,177,7.3,9.0,Không,Nhà mặt tiền,Không có,7.8,12.0,4,16.0843185,108.2200094, Mai Lão Bạng,Thuận Phước,hải châu,3.647511546857605,2.8712146978225,3.526720668868393
178,178,178,178,178,178,5.7,70.0,Không,Nhà mặt tiền,Không có,5.0,14.0,3,16.0327697,108.2155964, Huy Cận,Hòa Cường Nam,hải châu,4.931994610337267,3.0062339205199984,3.038708960872851
179,179,179,179,179,179,13.0,74.0,Không,Nhà mặt tiền,Giấy tờ hợp lệ,8.602325267042627,8.602325267042627,5,16.0515372,108.2430561, An Thượng 29,Mỹ An,ngũ hành sơn,1.5538599558396735,3.479760890847416,4.367490997046025
180,180,180,180,180,180,9.4,54.0,Không,Nhà mặt tiền,Không có,4.2,12.7,4,16.0796069,108.2199666, Nguyễn Chí Thanh,Thạch Thang,hải châu,3.370685433348425,2.379669687795836,3.0928069863666847
181,181,181,181,181,181,4.4,75.0,Không,Nhà mặt tiền,Không có,5.0,15.0,3,16.0271261,108.2227875, Đào Trí,Hòa Cường Nam,hải châu,4.948169450041347,3.793211843926909,3.965450992763016
182,182,182,182,182,182,14.0,86.85547250981791,Không,Nhà mặt tiền,Không có,10.0,20.0,3,16.0297992,108.2407759, Lê Hữu Khánh,Khuê Mỹ,ngũ hành sơn,3.950192229226448,4.543451907274674,5.083083076951749
183,183,183,183,183,183,8.0,75.0,Không,Nhà mặt tiền,Không có,5.0,15.0,5,16.0649797,108.198504, Bế Văn Đàn,Chính Gián,thanh khê,5.247773043648762,1.5237805374226177,0.9675237196321947
184,184,184,184,184,184,8.0,9.0,Không,Nhà mặt tiền,Không có,5.38,17.29,2,16.0816887,108.2129154, Thanh Hải,Thanh Bình,hải châu,4.145718839095633,2.4408510205548475,2.9216352990440764
185,185,185,185,185,185,7.0,90.0,Không,Nhà mặt tiền,Không có,5.0,18.0,1,16.0343498,108.2158375, Trần Đức Thảo,Hòa Cường Nam,hải châu,4.789185027057959,2.8371977984309087,2.8966014413504264
186,186,186,186,186,186,9.5,58.0,Không,Nhà mặt tiền,Không có,4.0,15.0,4,16.0581242,108.2096926, Phạm Văn Nghị,Thạc Gián,thanh khê,4.119270591716148,0.2694382393663154,0.7586021554367057
187,187,187,187,187,187,9.5,60.0,Không,Nhà mặt tiền,Giấy tờ hợp lệ,7.745966692414834,7.745966692414834,4,16.0581242,108.2096926, Phạm Văn Nghị,Thạc Gián,thanh khê,4.119270591716148,0.2694382393663154,0.7586021554367057
188,188,188,188,188,188,15.0,58.0,Không,Nhà mặt tiền,Giấy tờ hợp lệ,4.7,12.5,4,16.0673648,108.2238819, Phạm Phú Thứ,Hải Châu I,hải châu,2.547082964386834,1.562431219233504,2.532721540916184
189,189,189,189,189,189,28.0,99.0,Không,Nhà mặt tiền,Giấy tờ hợp lệ,9.9498743710662,9.9498743710662,7,16.0785524,108.2159741, Đống Đa,Thuận Phước,hải châu,3.701212010223355,2.140773490999176,2.757123206999029
190,190,190,190,190,190,5.5,58.0,Không,Nhà mặt tiền,Giấy tờ hợp lệ,4.0,15.0,3,16.0887725,108.2170944, Đinh Công Tráng,Thuận Phước,hải châu,4.195426592279652,3.273344487679751,3.817929625373816
191,191,191,191,191,191,6.8,90.0,Không,Nhà mặt tiền,Không có,5.0,18.0,1,16.0343498,108.2158375, Trần Đức Thảo,Hòa Cường Nam,hải châu,4.789185027057959,2.8371977984309087,2.8966014413504264
192,192,192,192,192,192,10.5,81.0,Không,Nhà mặt tiền,Giấy tờ hợp lệ,9.0,9.0,3,16.0600634,108.2135488, Nguyễn Hoàng,Bình Hiên,hải châu,3.677019358396333,0.2087568387355273,1.206391277618806
193,193,193,193,193,193,4.7,74.0,Không,Nhà mặt tiền,Giấy tờ hợp lệ,4.5,16.5,3,16.033764,108.2131623, Chu Mạnh Trinh,Khuê Trung,cẩm lệ,5.04018331209715,2.8708848259674213,2.8279857644585062
194,194,194,194,194,194,16.0,10.0,Không,Nhà mặt tiền,Không có,6.0,17.0,5,16.0372528,108.2443479, Khuê Đông,Khuê Mỹ,ngũ hành sơn,3.0774488043116586,4.2895598545045415,4.977562375278097
195,195,195,195,195,195,27.0,19.0,Không,Nhà mặt tiền,Giấy tờ hợp lệ,7.7,23.0,1,16.0796069,108.2199666, Nguyễn Chí Thanh,Thạch Thang,hải châu,3.370685433348425,2.379669687795836,3.0928069863666847
196,196,196,196,196,196,16.0,93.0,Không,Nhà mặt tiền,Giấy tờ hợp lệ,9.643650760992957,9.643650760992957,4,16.0656447,108.2017156, Điện Biên Phủ,Chính Gián,thanh khê,4.904825881595817,1.25131956440354,0.938080530690646
197,197,197,197,197,197,7.7,90.0,Không,Nhà mặt tiền,Giấy tờ hợp lệ,9.486832980505138,9.486832980505138,3,16.0756001,108.241529, An Cư 5,Phước Mỹ,sơn trà,1.3488632814111037,3.651805609636921,4.629259334688505
198,198,198,198,198,198,11.5,170.0,Không,Nhà mặt tiền,Giấy tờ hợp lệ,13.038404810405298,13.038404810405298,1,16.0567276,108.244559, Thạch Lam,Phước Mỹ,sơn trà,0.9582388152364848,3.53723882121221,4.48311080962013
199,199,199,199,199,199,18.0,9.0,Không,Nhà mặt tiền,Không có,4.6,20.0,4,16.0756155,108.2177987, Nguyễn Thị Minh Khai,Thạch Thang,hải châu,3.3972169537976726,1.8839272329724108,2.601334464287596
200,200,200,200,200,200,7.2,51.0,Không,Nhà mặt tiền,Giấy tờ hợp lệ,11.6,4.6,2,16.0596622,108.2121322, Đỗ Quang,Vĩnh Trung,thanh khê,3.833504767302232,0.0524890094715491,1.0484830818026558
201,201,201,201,201,201,10.8,90.0,Không,Nhà mặt tiền,Không có,5.0,19.0,5,16.0585706,108.2054324, Nguyễn Văn Linh,Hòa Thuận Tây,hải châu,4.5604363210459615,0.6753726808198405,0.3317920992642868
202,202,202,202,202,202,7.9,105.0,Không,Nhà mặt tiền,Giấy tờ hợp lệ,7.0,15.0,3,16.0846923,108.2154509, Mai Am,Thanh Bình,hải châu,4.073824379674623,2.7992505407396404,3.3339469470636365
203,203,203,203,203,203,25.0,108.0,Không,Nhà mặt tiền,Giấy tờ hợp lệ,5.0,22.0,7,16.0690377,108.2154839, Chi Lăng,Hải Châu II,hải châu,3.4614463587162567,1.115605185666422,1.8953071270614588
204,204,204,204,204,204,6.2,100.0,Không,Nhà mặt tiền,Giấy tờ hợp lệ,5.0,20.0,3,16.0743266,108.1653113, Nguyễn Xí,Hòa Minh,liên chiểu,8.860913342298423,5.216008071174232,4.422608607068493
205,205,205,205,205,205,18.0,10.0,Không,Nhà mặt tiền,Không có,10.0,21.0,3,16.0385745,108.2095787, Thân Cảnh Phúc,Hòa Cường Bắc,hải châu,4.998846779112979,2.344360963098496,2.191639633874809
206,206,206,206,206,206,16.0,125.0,Không,Nhà mặt tiền,Không có,5.0,25.0,3,16.0829842,108.222509, 3/2,Thuận Phước,hải châu,3.34466104852696,2.830282420146071,3.5550154060462016
207,207,207,207,207,207,5.4,70.0,Không,Nhà mặt tiền,Không có,4.5,16.0,3,16.0674661,108.1932536, Thái Thị Bôi,Chính Gián,thanh khê,5.816508032438447,2.148548751079927,1.5167105211395546
208,208,208,208,208,208,16.3,100.0,Không,Nhà mặt tiền,Giấy tờ hợp lệ,10.0,10.0,3,16.0376383,108.2228608, Phan Đăng Lưu,Hòa Cường Bắc,hải châu,4.009143855461245,2.717152216121649,3.060147884876638
209,209,209,209,209,209,14.5,115.0,Không,Nhà mặt tiền,Không có,4.0,22.0,3,16.0265835,108.2216438, Núi Thành,Hòa Cường Nam,hải châu,5.064918314100853,3.814118698517583,3.951732364242439
210,210,210,210,210,210,30.0,50.0,Không,Nhà mặt tiền,Không có,10.0,25.0,4,16.0769651,108.2077401, Nguyễn Tất Thành,Tam Thuận,thanh khê,4.4640479014140535,1.9593214614625285,2.25171715293669
211,211,211,211,211,211,8.2,100.0,Không,Nhà mặt tiền,Không có,5.0,20.0,3,16.0240983,108.2133727, Trần Thủ Độ,Khuê Trung,cẩm lệ,5.809576430911255,3.940222909621391,3.8398712721790655
212,212,212,212,212,212,8.5,90.0,Không,Nhà mặt tiền,Không có,4.5,20.0,4,16.0409045,108.216236, Ỷ Lan Nguyên Phi,Hòa Cường Bắc,hải châu,4.274552178367,2.1335238989701337,2.316772417097155
213,213,213,213,213,213,6.5,50.0,Không,Nhà mặt tiền,Không có,4.25,11.5,2,16.0752395,108.2178613, Lê Lai,Thạch Thang,hải châu,3.376606440437154,1.847406044367052,2.5731289915678763
214,214,214,214,214,214,13.3,130.0,Không,Nhà mặt tiền,Không có,5.0,26.0,3,16.0370813,108.2089625, Phan Đăng Lưu,Khuê Trung,cẩm lệ,5.149603894154175,2.5155707381203776,2.32790560798626
215,215,215,215,215,215,21.5,100.0,Không,Nhà mặt tiền,Không có,6.5,15.5,2,16.0604012,108.2170183, Hoàng Diệu,Nam Dương,hải châu,3.304327533355402,0.5810390622936686,1.5756969397271998
216,216,216,216,216,216,7.0,67.0,Không,Nhà mặt tiền,Không có,5.0,13.5,3,16.0482538,108.2223433, Tống Phước Phổ,Hòa Cường Bắc,hải châu,3.265485097425974,1.7047286767759406,2.327590026306745
217,217,217,217,217,217,6.2,90.0,Không,Nhà mặt tiền,Không có,5.0,18.0,2,16.0585706,108.2054324, Nguyễn Văn Linh,Hòa Thuận Tây,hải châu,4.5604363210459615,0.6753726808198405,0.3317920992642868
218,218,218,218,218,218,14.5,107.0,Không,Nhà mặt tiền,Không có,4.6,24.0,3,16.0606335,108.2093442, Phan Thanh,Thạc Gián,thanh khê,4.114958404858942,0.2681464382618427,0.8084728356482012
219,219,219,219,219,219,8.4,109.0,Không,Nhà mặt tiền,Không có,5.0,20.0,3,16.0404694,108.2209616, Hàn Thuyên,Hòa Cường Bắc,hải châu,3.923874706317377,2.3467167350895424,2.6959151556381533
220,220,220,220,220,220,9.8,100.0,Không,Nhà mặt tiền,Không có,5.0,20.0,3,16.070034,108.1881192, Kỳ Đồng,Xuân Hà,thanh khê,6.384280074128596,2.76607576088617,2.1057168217212467
221,221,221,221,221,221,18.0,75.0,Không,Nhà mặt tiền,Không có,5.0,15.0,3,16.0679058,108.2104343, Hoàng Hoa Thám,Vĩnh Trung,thanh khê,3.985191935149926,0.9209414423796412,1.4456743838233252
222,222,222,222,222,222,17.5,13.0,Không,Nhà mặt tiền,Không có,5.68,23.0,1,16.0490814,108.2194306, Duy Tân,Hòa Thuận Đông,hải châu,3.480357239690016,1.4375325654049007,2.0072219405627982
223,223,223,223,223,223,13.0,100.0,Không,Nhà mặt tiền,Không có,5.0,20.0,3,16.0419706,108.2135436, Nguyễn Hữu Dật,Hòa Cường Bắc,hải châu,4.435431449662891,1.9686828834751715,2.049795588920144
224,224,224,224,224,224,26.5,190.0,Không,Nhà mặt tiền,Không có,8.5,22.7,5,16.0756243,108.2319079, Ngô Quyền,An Hải Bắc,sơn trà,2.0522137939375127,2.796568797472516,3.733505998421484
225,225,225,225,225,225,16.0,84.0,Không,Nhà mặt tiền,Không có,4.15,21.54,6,16.0656447,108.2017156, Điện Biên Phủ,Chính Gián,thanh khê,4.904825881595817,1.25131956440354,0.938080530690646
226,226,226,226,226,226,20.0,155.0,Không,Nhà mặt tiền,Không có,5.2,24.8,3,16.0790801,108.2236839, Nguyễn Du,Thạch Thang,hải châu,2.9976141627984205,2.505138922606017,3.3031497560011363
227,227,227,227,227,227,13.2,67.0,Không,Nhà mặt tiền,Không có,4.5,15.5,6,16.0475884,108.2453787, An Thượng 6,Mỹ An,ngũ hành sơn,1.928629922817648,3.8495031483130338,4.693159108174635
228,228,228,228,228,228,10.0,100.0,Không,Nhà mặt tiền,Không có,5.0,20.0,5,16.0659224,108.1886334, Nguyễn Đức Trung,Hòa Khê,thanh khê,6.304935344898065,2.557407599641696,1.7838902779552854
229,229,229,229,229,229,12.0,130.0,Không,Nhà mặt tiền,Không có,10.0,13.0,2,16.0744881,108.240229, Dương Trí Trạch,An Hải Bắc,sơn trà,1.3196323962359588,3.470825739146003,4.450521527536584
230,230,230,230,230,230,13.3,130.0,Không,Nhà mặt tiền,Không có,5.0,26.0,3,16.0376383,108.2228608, Phan Đăng Lưu,Hòa Cường Bắc,hải châu,4.009143855461245,2.717152216121649,3.060147884876638
231,231,231,231,231,231,12.0,100.0,Không,Nhà mặt tiền,Không có,5.0,20.0,5,16.0409045,108.216236, Ỷ Lan Nguyên Phi,Hòa Cường Bắc,hải châu,4.274552178367,2.1335238989701337,2.316772417097155
232,232,232,232,232,232,10.3,120.0,Không,Nhà mặt tiền,Không có,7.0,17.5,3,16.0366455,108.2211218, Tiên Sơn 8,Hòa Cường Nam,hải châu,4.214947052772332,2.7419693794412834,3.013796631241829
233,233,233,233,233,233,5.6,81.0,Không,Nhà mặt tiền,Không có,4.5,18.0,3,16.0632203,108.1914377, Thân Nhân Trung,Hòa Khê,thanh khê,6.00672540640615,2.197349833853718,1.3728070388510571
234,234,234,234,234,234,8.0,108.0,Không,Nhà mặt tiền,Không có,4.5,24.0,3,16.0404694,108.2209616, Hàn Thuyên,Hòa Cường Bắc,hải châu,3.923874706317377,2.3467167350895424,2.6959151556381533
235,235,235,235,235,235,8.5,56.0,Không,Nhà mặt tiền,Không có,4.0,16.0,5,16.067252,108.2404802, Phạm Tu,An Hải Bắc,sơn trà,0.8002017076055575,3.1978921444979025,4.19583187152183
236,236,236,236,236,236,4.2,80.0,Không,Nhà mặt tiền,Không có,5.0,16.0,1,16.034151,108.2081832, Nguyễn Dữ,Khuê Trung,cẩm lệ,5.41434598641509,2.8475963822028323,2.6199128961444087
237,237,237,237,237,237,8.3,100.0,Không,Nhà mặt tiền,Không có,5.0,20.0,3,16.0754257,108.2323914, Đỗ Huy Uyển,An Hải Bắc,sơn trà,1.9973437453082103,2.8232435883243028,3.765162631201889
238,238,238,238,238,238,5.6,59.0,Không,Nhà mặt tiền,Không có,6.0,9.5,4,16.077247,108.2196748, Lý Tự Trọng,Thạch Thang,hải châu,3.280930062097949,2.126937362188647,2.8679327567243256
239,239,239,239,239,239,4.95,70.0,Không,Nhà mặt tiền,Không có,5.0,14.0,4,16.0382452,108.2190396, Phan Huy Ôn,Hòa Cường Bắc,hải châu,4.242672513571202,2.499082677926075,2.7345637633959656
240,240,240,240,240,240,16.5,120.0,Không,Nhà mặt tiền,Không có,5.8,21.0,4,16.0589472,108.1853248, Hà Huy Tập,An Khê,thanh khê,6.690435611944938,2.817100568633591,1.865350542587688
241,241,241,241,241,241,8.0,140.0,Không,Nhà mặt tiền,Không có,7.0,20.0,3,16.0794359,108.1672056, Phạm Đình Hổ,Hòa Minh,liên chiểu,8.74577210403151,5.233726229520666,4.521119307563326
242,242,242,242,242,242,13.0,7.0,Không,Nhà mặt tiền,Giấy tờ hợp lệ,6.0,13.0,4,16.0656447,108.2017156, Điện Biên Phủ,Chính Gián,thanh khê,4.904825881595817,1.25131956440354,0.938080530690646
243,243,243,243,243,243,9.5,14.0,Không,Nhà mặt tiền,Không có,5.8,43.0,1,16.0427332,108.2428481, Bà Huyện Thanh Quan,Mỹ An,ngũ hành sơn,2.50293418993956,3.829086990259891,4.588877644417808
244,244,244,244,244,244,20.0,59.0,Không,Nhà mặt tiền,Giấy tờ hợp lệ,5.5,11.0,3,16.0698397,108.2115701, Lê Duẩn,Tân Chính,thanh khê,3.88841536044275,1.1258653402444132,1.690805522306393
245,245,245,245,245,245,24.5,125.0,Không,Nhà mặt tiền,Giấy tờ hợp lệ,5.0,22.0,6,16.0690377,108.2154839, Chi Lăng,Hải Châu II,hải châu,3.4614463587162567,1.115605185666422,1.8953071270614588
246,246,246,246,246,246,6.5,76.0,Không,Nhà mặt tiền,Không có,4.5,17.0,2,16.0638721,108.2329652, Nguyễn Văn Siêu,An Hải Tây,sơn trà,1.5644898846300943,2.328643014830048,3.324722256475166
247,247,247,247,247,247,17.5,100.0,Không,Nhà mặt tiền,Không có,5.0,20.0,8,16.0698367,108.2367705, Nguyễn Xuân Khoát,An Hải Bắc,sơn trà,1.27655611984508,2.914842584015846,3.9073231654723375
248,248,248,248,248,248,7.2,68.0,Không,Nhà mặt tiền,Không có,4.5,15.3,4,16.078156,108.2150772, Lý Tự Trọng,Thanh Bình,hải châu,3.771723411774994,2.0788740580823646,2.670660212424873
249,249,249,249,249,249,11.0,71.0,Không,Nhà mặt tiền,Không có,5.0,14.0,3,16.0253941,108.2219221, Lê Thanh Nghị,Hòa Cường Nam,hải châu,5.15968931167554,3.948814826453508,4.080164080824873
250,250,250,250,250,250,12.0,110.0,Không,Nhà mặt tiền,Không có,11.0,10.0,2,16.0834758,108.2142269, Thanh Thủy,Thanh Bình,hải châu,4.115937120556901,2.6492828482404294,3.158100301174514
251,251,251,251,251,251,9.0,100.0,Không,Nhà mặt tiền,Không có,5.0,20.0,3,16.0755861,108.1760613, Lý Thái Tông,Thanh Khê Tây,thanh khê,7.739958819520965,4.194908209659657,3.497847225645176
252,252,252,252,252,252,11.5,10.0,Không,Nhà mặt tiền,Không có,5.0,20.0,3,16.0353736,108.2143518, Huỳnh Tấn Phát,Hòa Cường Nam,hải châu,4.82571608044144,2.703751123259102,2.721549913201162
253,253,253,253,253,253,42.0,190.0,Không,Nhà mặt tiền,Không có,10.0,19.0,1,16.065324,108.2444852, Hà Chương,Phước Mỹ,sơn trà,0.331283403570451,3.569634671150184,4.563823306552752
254,254,254,254,254,254,8.3,65.0,Không,Nhà mặt tiền,Không có,4.5,14.5,5,16.0873004,108.2193575, Cao Xuân Dục,Thuận Phước,hải châu,3.904848825283487,3.1675069340093143,3.777799418912912
255,255,255,255,255,255,20.0,59.0,Không,Nhà mặt tiền,Không có,5.4,11.0,3,16.0698397,108.2115701, Lê Duẩn,Tân Chính,thanh khê,3.88841536044275,1.1258653402444132,1.690805522306393
256,256,256,256,256,256,5.95,86.0,Không,Nhà mặt tiền,Không có,5.0,15.0,3,16.0649797,108.198504, Bế Văn Đàn,Chính Gián,thanh khê,5.247773043648762,1.5237805374226177,0.9675237196321947
257,257,257,257,257,257,9.8,50.0,Không,Nhà mặt tiền,Không có,4.0,12.5,3,16.0606335,108.2093442, Phan Thanh,Thạc Gián,thanh khê,4.114958404858942,0.2681464382618427,0.8084728356482012
258,258,258,258,258,258,20.0,126.0,Không,Nhà mặt tiền,Không có,5.45,24.0,3,16.0693719,108.2204069, Phan Châu Trinh,Hải Châu I,hải châu,2.946169589185153,1.4259204951605025,2.326539964933259
259,259,259,259,259,259,5.6,70.0,Không,Nhà mặt tiền,Không có,5.0,14.0,3,16.0327697,108.2155964, Huy Cận,Hòa Cường Nam,hải châu,4.931994610337267,3.0062339205199984,3.038708960872851
260,260,260,260,260,260,17.0,100.0,Không,Nhà mặt tiền,Không có,7.0,15.0,2,16.0517207,108.2401221, Châu Thị Vĩnh Tế,Mỹ An,ngũ hành sơn,1.6599054092668464,3.171826157774691,4.053959031899559
261,261,261,261,261,261,13.0,146.0,Không,Nhà mặt tiền,Không có,8.8,18.0,3,16.0382374,108.2163652, Nguyễn Cư Trinh,Hòa Cường Bắc,hải châu,4.453462990329684,2.424520622569639,2.561341068212001
262,262,262,262,262,262,7.5,80.0,Không,Nhà mặt tiền,Không có,5.0,16.0,3,16.0383613,108.2175473, Nguyễn Đổng Chi,Hòa Cường Bắc,hải châu,4.350225911820616,2.44076648009158,2.6248707933712474
263,263,263,263,263,263,16.5,80.0,Không,Nhà mặt tiền,Không có,5.0,16.0,3,16.0486433,108.2485294, An Thượng 1,Mỹ An,ngũ hành sơn,1.8009277618289568,4.131352317892098,4.998604841736438
264,264,264,264,264,264,30.0,50.0,Không,Nhà mặt tiền,Giấy tờ hợp lệ,10.0,25.0,4,16.0769651,108.2077401, Nguyễn Tất Thành,Tam Thuận,thanh khê,4.4640479014140535,1.9593214614625285,2.25171715293669
265,265,265,265,265,265,29.0,86.85547250981791,Không,Nhà mặt tiền,Không có,9.5,24.0,3,16.068177,108.2392192, Dương Đình Nghệ,An Hải Bắc,sơn trà,0.9626007776598884,3.0974688974354536,4.095001816980483
266,266,266,266,266,266,6.4,90.0,Không,Nhà mặt tiền,Không có,5.0,18.0,1,16.030072,108.2112972, Nguyễn Phong Sắc,Khuê Trung,cẩm lệ,5.467510656087649,3.27503015447001,3.142698725408692
267,267,267,267,267,267,38.0,30.0,Không,Nhà mặt tiền,Không có,10.0,23.0,5,16.0245072,108.2091787, Nguyễn Hữu Thọ,Khuê Trung,cẩm lệ,6.068675813813078,3.89953512871535,3.686178641284242
268,268,268,268,268,268,25.0,310.0,Không,Nhà mặt tiền,Không có,10.0,23.0,2,16.0658351,108.1905312, Điện Biên Phủ,Hòa Khê,thanh khê,6.101734271305003,2.3597516501080484,1.610960434371195
269,269,269,269,269,269,12.9,140.0,Không,Nhà mặt tiền,Không có,4.5,30.0,2,16.0810631,108.217488, Lương Ngọc Quyến,Thanh Bình,hải châu,3.680746407541048,2.4490498089336112,3.078691608961818
270,270,270,270,270,270,13.5,65.0,Không,Nhà mặt tiền,Không có,7.1,10.0,3,16.0784291,108.2194114, Lê Lợi,Thạch Thang,hải châu,3.3627667252479254,2.236583708847542,2.953000530041072
271,271,271,271,271,271,7.3,60.0,Không,Nhà mặt tiền,Không có,5.0,12.0,3,16.0834758,108.2142269, Thanh Thủy,Thanh Bình,hải châu,4.115937120556901,2.6492828482404294,3.158100301174514
272,272,272,272,272,272,13.5,180.0,Không,Nhà mặt tiền,Không có,6.0,30.0,4,16.0334743,108.2218767, Tiên Sơn 10,Hòa Cường Nam,hải châu,4.4308393785108064,3.098364942182785,3.3360939696302885
273,273,273,273,273,273,6.1,80.0,Không,Nhà mặt tiền,Không có,5.0,18.0,2,16.0411852,108.2413304, Hoài Thanh,Mỹ An,ngũ hành sơn,2.7062495765899257,3.778228723064128,4.501791899945291
274,274,274,274,274,274,16.5,171.0,Không,Nhà mặt tiền,Không có,8.1,19.0,1,16.0600634,108.2135488, Nguyễn Hoàng,Bình Hiên,hải châu,3.677019358396333,0.2087568387355273,1.206391277618806
275,275,275,275,275,275,3.95,56.0,Không,Nhà mặt tiền,Không có,4.0,14.0,2,16.0883921,108.2162174, Huỳnh Lý,Thuận Phước,hải châu,4.242781813595658,3.216318260091544,3.742119153958609
276,276,276,276,276,276,29.0,4.0,Không,Nhà mặt tiền,Không có,7.7,24.5,6,16.0434474,108.2173735, Lê Thanh Nghị,Hòa Cường Bắc,hải châu,4.007019681962558,1.8966254679872487,2.19065966190869
277,277,277,277,277,277,27.0,395.0,Không,Nhà mặt tiền,Không có,20.0,20.0,3,16.0142523,108.2074841, Hoàng Xuân Hãn,Khuê Trung,cẩm lệ,7.0556218644413455,5.045070520910605,4.78236117225
278,278,278,278,278,278,6.5,160.0,Không,Nhà mặt tiền,Không có,8.0,20.0,3,16.065653,108.1454414, Khánh An 2,Hòa Khánh Nam,liên chiểu,10.925756184055114,7.114410517501888,6.1938072778520725
279,279,279,279,279,279,15.0,19.0,Không,Nhà mặt tiền,Không có,10.0,19.2,2,16.0314422,108.2376829, Chương Dương,Khuê Mỹ,ngũ hành sơn,3.84894212866729,4.185679980325732,4.709275390834101
280,280,280,280,280,280,15.0,5.0,Không,Nhà mặt tiền,Không có,14.3,18.0,2,16.0172054,108.2084021, Phan Văn Trị,Khuê Trung,cẩm lệ,6.737453259158979,4.711399097584559,4.470048515679327
281,281,281,281,281,281,8.0,78.0,Không,Nhà mặt tiền,Không có,4.5,17.5,3,16.038086,108.2159511, Ngô Tất Tố,Hòa Cường Bắc,hải châu,4.497792035362378,2.4321191789611536,2.550130609384356
282,282,282,282,282,282,5.4,76.0,Không,Nhà mặt tiền,Không có,4.0,17.0,3,16.0315643,108.2287936, Nguyễn Thành Ý,Hòa Cường Nam,hải châu,4.198550669705128,3.610948245659809,3.9844832750914367
283,283,283,283,283,283,16.0,150.0,Không,Nhà mặt tiền,Không có,5.0,30.0,2,16.0316233,108.2127336, Xô Viết Nghệ Tĩnh,Khuê Trung,cẩm lệ,5.237488684143685,3.105356492143088,3.030227854884885
284,284,284,284,284,284,6.5,110.0,Không,Nhà mặt tiền,Không có,5.0,22.0,3,16.0664386,108.1810166, Mẹ Nhu,Thanh Khê Tây,thanh khê,7.120946963979735,3.3615215359053967,2.531242565670903
285,285,285,285,285,285,6.1,75.0,Không,Nhà mặt tiền,Không có,5.0,15.0,3,16.0649797,108.198504, Bế Văn Đàn,Chính Gián,thanh khê,5.247773043648762,1.5237805374226177,0.9675237196321947
286,286,286,286,286,286,11.0,11.0,Không,Nhà mặt tiền,Không có,5.0,22.5,5,16.0404694,108.2209616, Hàn Thuyên,Hòa Cường Bắc,hải châu,3.923874706317377,2.3467167350895424,2.6959151556381533
287,287,287,287,287,287,5.0,10.0,Không,Nhà mặt tiền,Không có,8.0,13.5,2,16.06214,108.17636, Nguyễn Như Hạnh,Hòa Minh,liên chiểu,7.623297230884605,3.785121722201558,2.8669706276523463
288,288,288,288,288,288,4.7,81.0,Không,Nhà mặt tiền,Không có,4.5,18.0,2,16.0620889,108.1909028, Nguyễn Biểu,Hòa Khê,thanh khê,6.069055663811194,2.2352407294805063,1.3692145524167645
289,289,289,289,289,289,14.75,100.0,Không,Nhà mặt tiền,Không có,5.0,20.0,3,16.0376383,108.2228608, Phan Đăng Lưu,Hòa Cường Bắc,hải châu,4.009143855461245,2.717152216121649,3.060147884876638
290,290,290,290,290,290,8.7,126.0,Không,Nhà mặt tiền,Không có,4.5,28.0,2,16.0631819,108.1848702, Huỳnh Ngọc Huệ,An Khê,thanh khê,6.709270586723101,2.890895199502064,2.01527528262713
291,291,291,291,291,291,5.895,100.0,Không,Nhà mặt tiền,Không có,5.0,20.0,4,16.0148532,108.2214454, Thanh Lương 21,Hòa Xuân,cẩm lệ,6.201766427724864,5.06868535494336,5.100613523267016
292,292,292,292,292,292,5.095,87.0,Không,Nhà mặt tiền,Không có,5.0,17.5,3,16.0775276,108.1653082, Phùng Chí Kiên,Hòa Minh,liên chiểu,8.909861511722013,5.337082919859059,4.5856977231146026
293,293,293,293,293,293,5.395,100.0,Không,Nhà mặt tiền,Không có,5.0,20.0,3,16.003473,108.2227152, Nguyễn Sắc Kim,Hòa Xuân,cẩm lệ,7.297486733820047,6.330154168956304,6.322531267265707
294,294,294,294,294,294,7.95,97.0,Không,Nhà mặt tiền,Không có,5.0,19.5,4,16.0340279,108.2086379, Phạm Phú Tiết,Khuê Trung,cẩm lệ,5.3852071799055325,2.855217323985112,2.6445224011386603
295,295,295,295,295,295,4.7,68.0,Không,Nhà mặt tiền,Không có,5.0,14.0,3,16.0311345,108.2270147, Lê Anh Xuân,Hòa Cường Nam,hải châu,4.333729075873777,3.560121910104603,3.888463720013613
296,296,296,296,296,296,8.5,61.0,Không,Nhà mặt tiền,Không có,4.7,12.8,4,16.056838,108.236577, Phạm Cự Lượng,An Hải Đông,sơn trà,1.47384203467243,2.686449500793481,3.628919074349536
297,297,297,297,297,297,7.0,81.0,Không,Nhà mặt tiền,Không có,4.5,18.0,4,16.0585049,108.185654, Lý Triện,An Khê,thanh khê,6.660404026000368,2.783721542377011,1.825846780232388
298,298,298,298,298,298,6.6,85.0,Không,Nhà mặt tiền,Không có,5.0,17.0,2,16.0449981,108.2167919, Nguyễn Sơn Hà,Hòa Cường Bắc,hải châu,3.959417285308429,1.7141235280933038,2.0281595984873984
299,299,299,299,299,299,4.9,68.0,Không,Nhà trong hẻm,Không có,4.5,15.0,2,16.0789946,108.2149183, Hải Hồ,Thanh Bình,hải châu,3.824309318250638,2.167457805734444,2.7433922900828707
300,300,300,300,300,300,12.0,16.0,Không,Nhà trong hẻm,Không có,9.5,17.0,2,16.0578969,108.2434351, Nguyễn Văn Thoại,Phước Mỹ,sơn trà,0.8902881268147573,3.4076197650363413,4.363156585853074
301,301,301,301,301,301,6.8,104.0,Không,Nhà trong hẻm,Không có,5.5,18.5,2,16.0557495,108.2097934, Lê Đình Lý,Vĩnh Trung,thanh khê,4.164597959463049,0.4763673161504429,0.7798318410034896
302,302,302,302,302,302,15.3,138.0,Không,Nhà trong hẻm,Không có,7.2,17.0,6,16.0409045,108.216236, Ỷ Lan Nguyên Phi,Hòa Cường Bắc,hải châu,4.274552178367,2.1335238989701337,2.316772417097155
303,303,303,303,303,303,10.25,168.0,Không,Nhà trong hẻm,Không có,7.0,24.0,2,16.0545048,108.2401907, Nguyễn Văn Thoại,An Hải Đông,sơn trà,1.3930607655585696,3.107784821737904,4.026584164349606
304,304,304,304,304,304,6.2,105.0,Không,Nhà trong hẻm,Không có,5.0,21.0,3,16.0536091,108.20467, Thi Sách,Hòa Thuận Tây,hải châu,4.754930223728085,1.0028554001820016,0.453260725546583
305,305,305,305,305,305,3.9,90.0,Không,Nhà trong hẻm,Không có,5.0,17.78,2,16.0382864,108.2213353, Núi Thành,Hòa Cường Bắc,hải châu,4.066315876444203,2.583237451838292,2.89481433902592
306,306,306,306,306,306,6.9,140.0,Không,Nhà trong hẻm,Không có,8.4,16.0,1,16.0751042,108.2073603, Trần Cao Vân,Tam Thuận,thanh khê,4.446100836465397,1.7687584978483872,2.042094465794425
307,307,307,307,307,307,14.0,55.0,Không,Nhà trong hẻm,Không có,11.0,23.0,1,16.0597301,108.2380867, Lê Hữu Trác,An Hải Đông,sơn trà,1.1623612636964813,2.8296940641110613,3.800378224485008
308,308,308,308,308,308,5.2,70.0,Không,Nhà trong hẻm,Không có,5.0,14.0,2,16.0620261,108.2372996, Võ Văn Kiệt,An Hải Đông,sơn trà,1.141531963216475,2.757844045524604,3.743957709754953
309,309,309,309,309,309,5.5,100.0,Không,Nhà trong hẻm,Không có,5.0,10.0,2,16.0525986,108.209006, Đặng Thùy Trâm,Hòa Thuận Tây,hải châu,4.342688198780041,0.831348949009912,0.8494512806729596
310,310,310,310,310,310,7.5,111.0,Không,Nhà trong hẻm,Không có,6.0,16.5,3,16.0661407,108.2070275, Lý Thái Tổ,Thạc Gián,thanh khê,4.337946556004268,0.870141834326494,1.092202714718076
311,311,311,311,311,311,5.2,70.0,Không,Nhà trong hẻm,Không có,5.0,14.0,2,16.0613274,108.2340679, Võ Văn Kiệt,An Hải Tây,sơn trà,1.4953575373534038,2.406688058434442,3.390795252401272
312,312,312,312,312,312,6.5,65.0,Không,Nhà trong hẻm,Không có,5.1,14.0,3,16.071472,108.2211764, Lê Duẩn,Hải Châu I,hải châu,2.91425886923023,1.6576154109612464,2.532052967922729
313,313,313,313,313,313,5.2,70.0,Không,Nhà trong hẻm,Không có,5.0,14.0,2,16.0614405,108.2329761, Đông Giang,An Hải Tây,sơn trà,1.6053198904577066,2.291260145068444,3.276823363851232
314,314,314,314,314,314,10.9,100.0,Không,Nhà mặt tiền,Giấy tờ hợp lệ,5.0,20.0,6,16.0658351,108.1905312, Điện Biên Phủ,Hòa Khê,thanh khê,6.101734271305003,2.3597516501080484,1.610960434371195
315,315,315,315,315,315,4.28,90.0,Tây Bắc,Nhà mặt tiền,Giấy tờ hợp lệ,4.06,18.0,2,16.0240456,108.2103341, Nguyễn Trung Ngạn,Khuê Trung,cẩm lệ,6.023948747153598,3.944180730095847,3.761377119367541
316,316,316,316,316,316,6.5,95.0,Đông Bắc,Nhà mặt tiền,Giấy tờ hợp lệ,5.0,19.0,3,16.0257227,108.2439839, Đoàn Khuê,Khuê Mỹ,ngũ hành sơn,4.350993912242096,5.107529359014842,5.629998508433773
317,317,317,317,317,317,3.85,100.0,Đông Nam,Nhà mặt tiền,Giấy tờ hợp lệ,5.0,20.0,2,16.0212756,108.2004817, Bùi Vịnh,Hòa Thọ Đông,cẩm lệ,6.975815789478457,4.412896672312063,3.984146342579829
318,318,318,318,318,318,5.5,150.0,Tây Nam,Nhà mặt tiền,Giấy tờ hợp lệ,5.0,30.0,1,16.0723048,108.1472133, Đồng Kè,Hòa Khánh Bắc,liên chiểu,10.766967754382824,7.034231089625177,6.163786505545406
319,319,319,319,319,319,3.88,90.0,Tây Bắc,Nhà mặt tiền,Giấy tờ hợp lệ,4.5,20.0,2,16.058024,108.1602192, Đồng Trí 3,Hòa Khánh Nam,liên chiểu,9.37522951494633,5.505357683603084,4.542775329019462
320,320,320,320,320,320,3.45,71.0,Đông Nam,Nhà trong hẻm,Giấy tờ hợp lệ,4.5,17.0,2,16.0515707,108.1690183, Nguyễn Huy Tưởng,Hòa Minh,liên chiểu,8.531294466356936,4.648040614066929,3.654241019885518
321,321,321,321,321,321,2.95,117.0,Bắc,Nhà trong hẻm,Giấy tờ hợp lệ,5.0,22.0,1,16.0638041,108.1488096, Nam Cao,Hòa Khánh Nam,liên chiểu,10.565766495853987,6.738701869171807,5.808596524198649
322,322,322,322,322,322,2.85,68.0,Tây Nam,Nhà trong hẻm,Giấy tờ hợp lệ,3.3,20.0,2,16.0583615,108.1683251, Tô Hiệu,Hòa Minh,liên chiểu,8.507768670810812,4.637246247012794,3.676714756835964
323,323,323,323,323,323,2.6,65.0,Đông,Nhà trong hẻm,Giấy tờ hợp lệ,4.0,16.0,2,16.0583615,108.1683251, Tô Hiệu,Hòa Minh,liên chiểu,8.507768670810812,4.637246247012794,3.676714756835964
324,324,324,324,324,324,5.0,90.0,Đông Bắc,Nhà mặt tiền,Giấy tờ hợp lệ,5.0,18.0,3,16.0768743,108.1613001, Trần Quý Khoách,Hòa Minh,liên chiểu,9.3230983465541,5.713151408100895,4.93166523441203
325,325,325,325,325,325,3.2,71.0,Đông Nam,Nhà trong hẻm,Giấy tờ hợp lệ,3.5,20.0,2,16.0844706,108.1395853, Nguyễn Lương Bằng,Hòa Khánh Bắc,liên chiểu,11.752944290445406,8.183793836048054,7.392495166521861
326,326,326,326,326,326,2.85,74.0,Tây Bắc,Nhà trong hẻm,Giấy tờ hợp lệ,4.7,15.7,2,16.0554848,108.1553766, Hoàng Văn Thái,Hòa Khánh Nam,liên chiểu,9.917383246685455,6.03832112693159,5.063737357990122
327,327,327,327,327,327,3.6,76.0,Tây Bắc,Nhà trong hẻm,Giấy tờ hợp lệ,4.0,19.0,3,16.0705872,108.1527666, Tôn Đức Thắng,Hòa Khánh Bắc,liên chiểu,10.161087742443131,6.414493194001564,5.540379991525375
328,328,328,328,328,328,2.3,75.0,Đông Bắc,Nhà trong hẻm,Giấy tờ hợp lệ,5.0,15.0,1,16.0844706,108.1395853, Nguyễn Lương Bằng,Hòa Khánh Bắc,liên chiểu,11.752944290445406,8.183793836048054,7.392495166521861
329,329,329,329,329,329,2.74,6.0,Tây Nam,Nhà trong hẻm,Giấy tờ hợp lệ,4.0,14.0,2,16.0860398,108.1555523, Nguyễn Chánh,Hòa Minh,liên chiểu,10.117483091459665,6.67334852323419,5.965199341734908
330,330,330,330,330,330,2.35,99.0,Tây Bắc,Nhà trong hẻm,Giấy tờ hợp lệ,5.0,19.0,2,16.0415679,108.1813377, Tôn Đản,Hòa An,cẩm lệ,7.540386123959919,3.81132784558817,2.864890139485825
331,331,331,331,331,331,2.85,86.0,Tây Nam,Nhà trong hẻm,Giấy tờ hợp lệ,4.0,22.0,2,16.0515707,108.1690183, Nguyễn Huy Tưởng,Hòa Minh,liên chiểu,8.531294466356936,4.648040614066929,3.654241019885518
332,332,332,332,332,332,2.85,60.0,Không,Nhà mặt tiền,Giấy tờ hợp lệ,4.0,14.0,2,16.0112356,108.2002191, Bình Thái 4,Hòa Thọ Đông,cẩm lệ,7.804217058592689,5.496878681377828,5.095032287792605
333,333,333,333,333,333,4.2,88.0,Đông Nam,Nhà mặt tiền,Giấy tờ hợp lệ,5.0,17.7,2,16.0497991,108.1737096, Lê Vĩnh Khanh,Hòa An,cẩm lệ,8.075611672112421,4.203215396112528,3.205341209039846
334,334,334,334,334,334,8.49,109.0,Không,Nhà mặt tiền,Không có,10.44030650891055,10.44030650891055,3,16.0382864,108.2213353, Núi Thành,Hòa Cường Bắc,hải châu,4.066315876444203,2.583237451838292,2.89481433902592
335,335,335,335,335,335,15.0,370.0,Không,Nhà mặt tiền,Không có,19.235384061671343,19.235384061671343,3,15.9861983,108.2411153, Mai Đăng Chơn,Hòa Quý,ngũ hành sơn,8.735136367622017,8.7203199830282,8.871055037905531
336,336,336,336,336,336,9.5,190.0,Không,Nhà mặt tiền,Không có,13.784048752090222,13.784048752090222,3,16.007266,108.2561299, Lê Văn Hiến,Hòa Hải,ngũ hành sơn,6.44242357425875,7.502639756624858,7.955565117413681
337,337,337,337,337,337,3.8,100.0,Không,Nhà mặt tiền,Không có,10.0,10.0,1,16.0768743,108.1613001, Trần Nguyên Đán,Hòa Minh,liên chiểu,9.3230983465541,5.713151408100895,4.93166523441203
338,338,338,338,338,338,32.0,384.0,Không,Nhà mặt tiền,Giấy tờ hợp lệ,18.0,21.3,3,16.0438995,108.2150564, Tiểu La,Hòa Cường Bắc,hải châu,4.181375552417888,1.782537511421301,1.9824285931780337
339,339,339,339,339,339,2.6,100.0,Tây Nam,Nhà mặt tiền,Giấy tờ hợp lệ,5.0,20.0,1,16.0985345,108.141334, Xuân Thiều 14,Hòa Hiệp Nam,liên chiểu,11.95831905924448,8.665236520341107,7.997778745685504
340,340,340,340,340,340,6.4,68.0,Tây,Nhà mặt tiền,Giấy tờ hợp lệ,5.0,13.6,3,16.0482538,108.2223433, Tống Phước Phổ,Hòa Cường,hải châu,3.265485097425974,1.7047286767759406,2.327590026306745
341,341,341,341,341,341,15.0,90.0,Bắc,Nhà mặt tiền,Giấy tờ hợp lệ,4.5,20.0,3,16.0438995,108.2150564, Tiểu La,Hòa Cường,hải châu,4.181375552417888,1.782537511421301,1.9824285931780337
342,342,342,342,342,342,17.5,100.0,Bắc,Nhà mặt tiền,Giấy tờ hợp lệ,5.0,20.0,3,16.0651602,108.1828011, Điện Biên Phủ,Thanh Khê Tây,thanh khê,6.928031344937312,3.1452987658464853,2.300077403822977
343,343,343,343,343,343,5.7,77.0,Tây Nam,Nhà mặt tiền,Giấy tờ hợp lệ,4.5,17.0,3,16.0805751,108.1606037, 265 Kinh Dương Vương,Hòa Minh,liên chiểu,9.463259018847957,5.930873127720274,5.189936841860251
344,344,344,344,344,344,5.3,75.0,Đông Nam,Nhà mặt tiền,Giấy tờ hợp lệ,5.0,15.0,3,16.0911135,108.2430679, 175 Ngô Quyền,Mân Thái,sơn trà,2.9411937676216247,4.839028836901054,5.723332137651914
345,345,345,345,345,345,6.2,90.0,Đông Nam,Nhà mặt tiền,Giấy tờ hợp lệ,5.0,18.0,3,16.0583615,108.1683251, Tô Hiệu,Hòa Minh,liên chiểu,8.507768670810812,4.637246247012794,3.676714756835964
346,346,346,346,346,346,7.6,98.0,Tây Nam,Nhà mặt tiền,Giấy tờ hợp lệ,5.0,19.5,3,16.0585049,108.185654, Lý Triện,An Khê,thanh khê,6.660404026000368,2.783721542377011,1.825846780232388
347,347,347,347,347,347,4.8,7.0,Đông Bắc,Nhà mặt tiền,Giấy tờ hợp lệ,4.5,16.0,3,16.0828595,108.1605917, Dương Đức Hiền,Hòa Minh,liên chiểu,9.514074086369494,6.035119204714847,5.321416671860528
348,348,348,348,348,348,4.7,7.0,Tây Bắc,Nhà mặt tiền,Giấy tờ hợp lệ,4.5,16.0,3,16.0780881,108.1615424, Hoà Minh 22,Hòa Minh,liên chiểu,9.317517108905594,5.735059344635148,4.969382887632557
349,349,349,349,349,349,4.3,53.0,Đông Bắc,Nhà mặt tiền,Giấy tờ hợp lệ,6.2,8.7,3,16.0601514,108.1817772, Lê Thị Tính,An Khê,thanh khê,7.057121662667672,3.196023262370414,2.258559888113598
350,350,350,350,350,350,5.5,75.0,Tây Bắc,Nhà mặt tiền,Giấy tờ hợp lệ,5.0,15.0,3,16.0734017,108.1648473, Phú Xuân,Hòa Minh,liên chiểu,8.89882214533866,5.232584044082878,4.425132719858306
351,351,351,351,351,351,4.2,90.0,Đông Nam,Nhà mặt tiền,Giấy tờ hợp lệ,4.5,20.0,3,16.0577141,108.1611532, Đồng Trí 1,Hòa Minh,liên chiểu,9.278501489748896,5.406737730849512,4.442300435666987
352,352,352,352,352,352,5.9,80.0,Đông Bắc,Nhà mặt tiền,Giấy tờ hợp lệ,4.0,20.0,3,16.0631819,108.1848702, Huỳnh Ngọc Huệ,Hòa Khê,thanh khê,6.709270586723101,2.890895199502064,2.01527528262713
353,353,353,353,353,353,7.2,85.0,Tây,Nhà mặt tiền,Giấy tờ hợp lệ,5.0,17.0,4,16.0569886,108.1858049, Nguyễn Khang,An Khê,thanh khê,6.664306245545783,2.78044751858792,1.8043172255512776
354,354,354,354,354,354,15.5,86.85547250981791,Tây Bắc,Nhà mặt tiền,Giấy tờ hợp lệ,10.0,20.0,1,16.0297992,108.2407759, Lê Hữu Khánh,Khuê Mỹ,ngũ hành sơn,3.950192229226448,4.543451907274674,5.083083076951749
355,355,355,355,355,355,17.2,147.0,Không,Nhà mặt tiền,Giấy tờ hợp lệ,7.0,21.0,5,16.0687479,108.1683392, Hoàng Thị Loan,Hòa Minh,liên chiểu,8.486054202752857,4.741117161049356,3.888249496734956
356,356,356,356,356,356,5.6,75.0,Đông Nam,Nhà mặt tiền,Giấy tờ hợp lệ,5.0,15.0,3,16.0944583,108.2414025, Bình Than,Thọ Quang,sơn trà,3.337419073441657,4.996260600929438,5.844750891496938
357,357,357,357,357,357,5.0,125.0,Đông,Nhà mặt tiền,Giấy tờ hợp lệ,5.0,25.0,2,15.9970496,108.2150773, 158 Hoàng Đình Ái,Hòa Xuân,cẩm lệ,8.272444011624037,6.938791037554091,6.789316842345563
358,358,358,358,358,358,13.0,80.0,Đông Nam,Nhà mặt tiền,Giấy tờ hợp lệ,5.0,16.0,3,16.0660304,108.182963, Trần Cao Vân,Thanh Khê Đông,thanh khê,6.911780426380437,3.148430426905482,2.322831028240368
359,359,359,359,359,359,6.5,60.0,Nam,Nhà mặt tiền,Giấy tờ hợp lệ,4.0,15.0,3,16.0869453,108.2200427, Xuân Diệu,Thuận Phước,hải châu,3.823299945738549,3.1497200899915883,3.778748786890055
360,360,360,360,360,360,13.5,80.0,Tây Bắc,Nhà mặt tiền,Giấy tờ hợp lệ,6.0,13.5,5,16.0534442,108.2345516, Ngọc Hân,An Hải Tây,sơn trà,1.8810597242105265,2.5463011080831377,3.4374324512137315
361,361,361,361,361,361,8.44943486742928,130.0,Đông,Nhà mặt tiền,Giấy tờ hợp lệ,10.0,13.0,2,16.0744881,108.240229, Dương Trí Trạch,An Hải Bắc,sơn trà,1.3196323962359588,3.470825739146003,4.450521527536584
362,362,362,362,362,362,5.18,90.0,Tây Bắc,Nhà mặt tiền,Giấy tờ hợp lệ,5.0,18.0,3,16.0776992,108.1650233, Lê Văn Thịnh,Hòa Minh,liên chiểu,8.9429545879504,5.372433357220824,4.621574864228392
363,363,363,363,363,363,5.0,90.0,Đông Bắc,Nhà mặt tiền,Giấy tờ hợp lệ,5.0,18.0,3,16.0778224,108.157034, Đặng Huy Trứ,Hòa Minh,liên chiểu,9.789893346572056,6.178699086093741,5.388662327573417
364,364,364,364,364,364,5.7,100.0,Tây Nam,Nhà mặt tiền,Giấy tờ hợp lệ,5.0,20.0,3,16.0405485,108.2478071, Hồ Xuân Hương,Mỹ An,ngũ hành sơn,2.6937730513050724,4.410451516659464,5.170737301024845
365,365,365,365,365,365,4.3,60.0,Đông,Nhà mặt tiền,Giấy tờ hợp lệ,4.0,15.0,3,16.06214,108.17636, Nguyễn Như Hạnh,Hòa Minh,liên chiểu,7.623297230884605,3.785121722201558,2.8669706276523463
366,366,366,366,366,366,16.8,8.0,Bắc,Nhà mặt tiền,Giấy tờ hợp lệ,5.0,16.5,3,16.0651602,108.1828011, Điện Biên Phủ,Thanh Khê Tây,thanh khê,6.928031344937312,3.1452987658464853,2.300077403822977
367,367,367,367,367,367,5.9,85.0,Tây Nam,Nhà mặt tiền,Giấy tờ hợp lệ,5.0,17.0,3,16.0687479,108.1683392, Hoàng Thị Loan,Hòa Minh,liên chiểu,8.486054202752857,4.741117161049356,3.888249496734956
368,368,368,368,368,368,12.0,70.0,Nam,Nhà mặt tiền,Giấy tờ hợp lệ,4.5,15.0,3,16.0651602,108.1828011, Điện Biên Phủ,Thanh Khê Tây,thanh khê,6.928031344937312,3.1452987658464853,2.300077403822977
369,369,369,369,369,369,9.0,65.0,Tây Bắc,Nhà mặt tiền,Không có,4.5,14.5,3,16.0638683,108.1919701, Hà Huy Tập,Hòa Khê,thanh khê,5.947980858943689,2.15564792722474,1.3606497039785568
370,370,370,370,370,370,4.0,61.0,Đông,Nhà mặt tiền,Giấy tờ hợp lệ,4.0,15.25,3,16.0687479,108.1683392, Hoàng Thị Loan,Hòa Minh,liên chiểu,8.486054202752857,4.741117161049356,3.888249496734956
371,371,371,371,371,371,6.999,100.0,Tây Bắc,Nhà mặt tiền,Giấy tờ hợp lệ,5.0,20.0,3,16.0206814,108.2271824, Nguyễn Phước Lan,Hòa Xuân,cẩm lệ,5.355611218350409,4.623435985242665,4.819723497803131
372,372,372,372,372,372,5.95,95.0,Tây,Nhà mặt tiền,Giấy tờ hợp lệ,5.0,19.0,3,16.0230849,108.2442513, Nước Mặn 1,Khuê Mỹ,ngũ hành sơn,4.639572912359541,5.344520527325502,5.837022598164327
373,373,373,373,373,373,6.9,60.0,Tây,Nhà mặt tiền,Giấy tờ hợp lệ,5.0,12.0,3,16.0834758,108.2142269, Thanh Thủy,Thuận Phước,hải châu,4.115937120556901,2.6492828482404294,3.158100301174514
374,374,374,374,374,374,28.7,70.0,Tây,Nhà mặt tiền,Giấy tờ hợp lệ,15.0,18.0,3,16.0328988,108.2408958, Nguyễn Lữ,Khuê Mỹ,ngũ hành sơn,3.6110114063085934,4.309685716254744,4.896792179558326
375,375,375,375,375,375,6.35,100.0,Tây Nam,Nhà mặt tiền,Giấy tờ hợp lệ,5.0,20.0,3,16.0202118,108.2268303, Nguyễn Mậu Tài,Hòa Xuân,cẩm lệ,5.418429627490895,4.658681801409622,4.843175728319395
376,376,376,376,376,376,54.0,300.0,Bắc,Nhà mặt tiền,Giấy tờ hợp lệ,15.0,20.0,3,16.0656447,108.2017156, Điện Biên Phủ,Chính Gián,thanh khê,4.904825881595817,1.25131956440354,0.938080530690646
377,377,377,377,377,377,1.95,40.0,Không,Nhà trong hẻm,Giấy tờ hợp lệ,4.0,10.0,2,16.0631819,108.1848702, 47 Huỳnh Ngọc Huệ,Hòa Khê,thanh khê,6.709270586723101,2.890895199502064,2.01527528262713
378,378,378,378,378,378,3.95,66.0,Đông,Nhà trong hẻm,Giấy tờ hợp lệ,4.5,14.7,3,16.068519,108.2015402, Lê Độ,Xuân Hà,thanh khê,4.939198430174126,1.458784797930211,1.2564092517962624
379,379,379,379,379,379,3.9,5.0,Đông Nam,Nhà trong hẻm,Giấy tờ hợp lệ,5.2,10.0,3,16.0674661,108.1932536, 99 Thái Thị Bôi,Chính Gián,thanh khê,5.816508032438447,2.148548751079927,1.5167105211395546
380,380,380,380,380,380,2.88,6.0,Tây Bắc,Nhà trong hẻm,Giấy tờ hợp lệ,4.0,15.5,2,16.0617598,108.1870898, Trần Xuân Lê,Hòa Khê,thanh khê,6.478400144100649,2.6372994879727267,1.7407821355210669
381,381,381,381,381,381,2.95,75.0,Tây,Nhà trong hẻm,Giấy tờ hợp lệ,4.0,18.8,3,16.0415679,108.1813377, Tôn Đản,Hòa An,cẩm lệ,7.540386123959919,3.81132784558817,2.864890139485825
382,382,382,382,382,382,5.8,60.0,Tây Nam,Nhà trong hẻm,Giấy tờ hợp lệ,6.0,10.0,3,16.077247,108.2196748, Lý Tự Trọng,Thạch Thang,hải châu,3.280930062097949,2.126937362188647,2.8679327567243256
383,383,383,383,383,383,4.6,60.0,Tây,Nhà trong hẻm,Giấy tờ hợp lệ,4.0,15.0,3,16.0581242,108.2096926, Phạm Văn Nghị,Thạc Gián,thanh khê,4.119270591716148,0.2694382393663154,0.7586021554367057
384,384,384,384,384,384,4.25,60.0,Tây Nam,Nhà trong hẻm,Giấy tờ hợp lệ,4.0,15.0,3,16.0565049,108.2093571, Phạm Văn Nghị,Vĩnh Trung,thanh khê,4.190594104333655,0.4267387865709144,0.7203671662796977
385,385,385,385,385,385,1.89,40.0,Đông,Nhà trong hẻm,Giấy tờ hợp lệ,4.0,10.0,1,16.0600634,108.2135488, K205 Nguyễn Hoàng,Bình Hiên,hải châu,3.677019358396333,0.2087568387355273,1.206391277618806
386,386,386,386,386,386,6.8,81.0,Tây,Nhà mặt tiền,Giấy tờ hợp lệ,4.0,20.25,3,16.0635334,108.1892879, Phạm Nhữ Tăng,Hòa Khê,thanh khê,6.235714336178697,2.429877017839835,1.5929413697899537
387,387,387,387,387,387,3.55,53.0,Tây,Nhà mặt tiền,Giấy tờ hợp lệ,4.0,13.25,2,16.06214,108.17636, Nguyễn Như Hạnh,Hòa Minh,liên chiểu,7.623297230884605,3.785121722201558,2.8669706276523463
388,388,388,388,388,388,2.9,50.0,Đông,Nhà trong hẻm,Giấy tờ hợp lệ,7.0,7.5,2,16.0610038,108.2208252, Nguyễn Văn Linh,Phước Ninh,hải châu,2.891589655076026,0.9937498790760984,1.987811903631371
389,389,389,389,389,389,2.75,50.0,Đông Nam,Nhà trong hẻm,Giấy tờ hợp lệ,4.0,12.5,3,16.0660304,108.182963, 814 Trần Cao Vân,Thanh Khê Đông,thanh khê,6.911780426380437,3.148430426905482,2.322831028240368
390,390,390,390,390,390,4.55,50.0,Đông,Nhà trong hẻm,Giấy tờ hợp lệ,4.0,12.0,3,16.0641445,108.2166081, K100 Triệu Nữ Vương,Hải Châu II,hải châu,3.311664632315792,0.7266584223102898,1.677305391765951
391,391,391,391,391,391,2.55,4.0,Nam,Nhà trong hẻm,Giấy tờ hợp lệ,3.0,14.0,2,16.0659128,108.19729119091544, 186 Điện Biên Phủ,Chính Gián,thanh khê,5.3787119798906975,1.6839501607011145,1.1209644297408852
392,392,392,392,392,392,4.25,50.0,Tây,Nhà trong hẻm,Giấy tờ hợp lệ,4.0,12.5,4,16.0651602,108.1828011, Điện Biên Phủ,Thanh Khê Tây,thanh khê,6.928031344937312,3.1452987658464853,2.300077403822977
393,393,393,393,393,393,2.8,50.0,Đông Nam,Nhà trong hẻm,Giấy tờ hợp lệ,3.0,17.0,3,16.0660304,108.182963, Trần Cao Vân,Thanh Khê Đông,thanh khê,6.911780426380437,3.148430426905482,2.322831028240368
394,394,394,394,394,394,2.99,51.0,Tây,Nhà trong hẻm,Giấy tờ hợp lệ,3.0,17.0,2,16.0596622,108.2121322, Đỗ Quang,Vĩnh Trung,thanh khê,3.833504767302232,0.0524890094715491,1.0484830818026558
395,395,395,395,395,395,2.444,50.0,Đông Nam,Nhà trong hẻm,Giấy tờ hợp lệ,3.0,17.0,2,16.0638683,108.1919701, 249 Hà Huy Tập,Hòa Khê,thanh khê,5.947980858943689,2.15564792722474,1.3606497039785568
396,396,396,396,396,396,2.9,50.0,Tây,Nhà trong hẻm,Giấy tờ hợp lệ,5.0,10.0,2,16.0562861,108.217152, 361 Hoàng Diệu,Bình Thuận,hải châu,3.388998407675905,0.6982315253644558,1.5535481531126378
397,397,397,397,397,397,2.05,35.0,Tây Bắc,Nhà trong hẻm,Giấy tờ hợp lệ,3.0,12.0,2,16.0562861,108.217152, 266 Hoàng Diệu,Bình Hiên,hải châu,3.388998407675905,0.6982315253644558,1.5535481531126378
398,398,398,398,398,398,2.95,50.0,Tây,Nhà trong hẻm,Giấy tờ hợp lệ,4.0,12.5,2,16.0596622,108.2121322, Đỗ Quang,Vĩnh Trung,thanh khê,3.833504767302232,0.0524890094715491,1.0484830818026558
399,399,399,399,399,399,2.0,70.0,Nam,Nhà trong hẻm,Giấy tờ hợp lệ,4.0,17.5,1,16.0477505,108.1694297, 62 Nguyễn Huy Tưởng,Hòa Minh,liên chiểu,8.571541179975892,4.705437056537236,3.707516303081869
400,400,400,400,400,400,2.5,50.0,Đông Bắc,Nhà trong hẻm,Giấy tờ hợp lệ,4.0,12.0,2,16.0660304,108.182963, Trần Cao Vân,Thanh Khê Tây,thanh khê,6.911780426380437,3.148430426905482,2.322831028240368
401,401,401,401,401,401,2.85,60.0,Tây Bắc,Nhà trong hẻm,Giấy tờ hợp lệ,4.7,12.5,3,16.0533557,108.1853664, 69 Nguyễn Phước Nguyên,An Khê,thanh khê,6.774998341912,2.8969782532200834,1.8997636081011784
402,402,402,402,402,402,4.38,60.0,Không,Nhà trong hẻm,Giấy tờ hợp lệ,4.0,15.0,3,16.0656447,108.2017156, Điện Biên Phủ,Chính Gián,thanh khê,4.904825881595817,1.25131956440354,0.938080530690646
403,403,403,403,403,403,3.29,5.0,Đông Nam,Nhà trong hẻm,Giấy tờ hợp lệ,4.0,13.0,2,16.037304,108.2170335, Bình An 7,Hòa Cường,hải châu,4.470032308514932,2.5409106855031487,2.686972339744069
404,404,404,404,404,404,3.1,71.0,Nam,Nhà trong hẻm,Giấy tờ hợp lệ,4.7,15.0,2,16.0583615,108.1683251, Tô Hiệu,Hòa Minh,liên chiểu,8.507768670810812,4.637246247012794,3.676714756835964
405,405,405,405,405,405,2.35,40.0,Nam,Nhà trong hẻm,Giấy tờ hợp lệ,4.0,10.0,2,16.0505268,108.2188087, 569 Hoàng Diệu,Hòa Thuận Đông,hải châu,3.461740876029918,1.2692127569131852,1.8794026019593704
406,406,406,406,406,406,2.85,86.0,Tây Nam,Nhà trong hẻm,Giấy tờ hợp lệ,4.0,21.5,2,16.0515707,108.1690183, Nguyễn Huy Tưởng,Hòa Minh,liên chiểu,8.531294466356936,4.648040614066929,3.654241019885518
407,407,407,407,407,407,1.27,30.0,Đông,Nhà trong hẻm,Giấy tờ hợp lệ,4.2,7.2,1,16.0733641,108.2017478, Tôn Thất Đạm,Xuân Hà,thanh khê,4.989484517299679,1.848918216876124,1.7894787927055251
408,408,408,408,408,408,1.68,30.0,Đông Nam,Nhà trong hẻm,Giấy tờ hợp lệ,3.0,10.0,2,16.052016,108.2141211, Trưng Nữ Vương,Hòa Thuận Đông,hải châu,3.8501300898541233,0.8871212284883858,1.3542273728919043
409,409,409,409,409,409,2.45,61.0,Đông,Nhà trong hẻm,Giấy tờ hợp lệ,5.6,11.0,1,16.0674661,108.1932536, Thái Thị Bôi,Chính Gián,thanh khê,5.816508032438447,2.148548751079927,1.5167105211395546
410,410,410,410,410,410,3.25,78.0,Nam,Nhà trong hẻm,Giấy tờ hợp lệ,7.0,11.1,2,16.0664337,108.2068999, 407 Lê Duẩn,Thạc Gián,thanh khê,4.352741284922691,0.90461541432714,1.115988793858034
411,411,411,411,411,411,3.1,44.0,Đông Bắc,Nhà trong hẻm,Giấy tờ hợp lệ,4.0,11.0,3,16.059016,108.1842694, Phần Lăng 7,An Khê,thanh khê,6.802094069003727,2.929790774516964,1.978470765834016
412,412,412,412,412,412,2.67,50.0,Bắc,Nhà trong hẻm,Giấy tờ hợp lệ,5.0,10.0,2,16.0638683,108.1919701, 249 Hà Huy Tập,Hòa Khê,thanh khê,5.947980858943689,2.15564792722474,1.3606497039785568
413,413,413,413,413,413,3.15,64.0,Đông,Nhà trong hẻm,Giấy tờ hợp lệ,4.0,16.0,3,16.0392505,108.1852671, Tôn Đản,Hòa Phát,cẩm lệ,7.243350763046908,3.6151117691300856,2.723808498087963
414,414,414,414,414,414,3.2,13.0,Đông Nam,Nhà trong hẻm,Giấy tờ hợp lệ,4.0,33.0,2,16.0583615,108.1683251, Tô Hiệu,Hòa Minh,liên chiểu,8.507768670810812,4.637246247012794,3.676714756835964
415,415,415,415,415,415,3.8,81.0,Đông Nam,Nhà trong hẻm,Giấy tờ hợp lệ,4.0,20.5,2,16.0657727,108.1920133, 249/115 Hà Huy Tập,Hòa Khê,thanh khê,5.943057639550919,2.2062994298479004,1.4816914950904423
416,416,416,416,416,416,3.2,73.0,Nam,Nhà trong hẻm,Giấy tờ hợp lệ,6.8,11.0,2,16.0695465,108.2024317, 300 Hải Phòng,Tam Thuận,thanh khê,4.854866756660014,1.4719560640943876,1.3645590102452605
417,417,417,417,417,417,2.45,55.0,Đông,Nhà trong hẻm,Giấy tờ hợp lệ,4.0,13.6,2,16.052016,108.2141211, 408 Trưng Nữ Vương,Hòa Thuận Đông,hải châu,3.8501300898541233,0.8871212284883858,1.3542273728919043
418,418,418,418,418,418,2.98,41.0,Đông,Nhà trong hẻm,Giấy tờ hợp lệ,3.0,14.0,3,16.0645438,108.2143279, 40 Nguyễn Hoàng,Hải Châu II,hải châu,3.554820898058648,0.6115536958109101,1.488142975167167
419,419,419,419,419,419,3.8,70.0,Tây Bắc,Nhà trong hẻm,Giấy tờ hợp lệ,4.0,17.5,3,16.0638683,108.1919701, 282 Hà Huy Tập,Hòa Khê,thanh khê,5.947980858943689,2.15564792722474,1.3606497039785568
420,420,420,420,420,420,2.75,50.0,Tây Bắc,Nhà trong hẻm,Giấy tờ hợp lệ,3.0,17.0,2,16.0638683,108.1919701, 282 Hà Huy Tập,Hòa Khê,thanh khê,5.947980858943689,2.15564792722474,1.3606497039785568
421,421,421,421,421,421,4.29,101.0,Đông,Nhà trong hẻm,Giấy tờ hợp lệ,4.0,25.25,3,16.0638683,108.1919701, Hà Huy Tập,Hòa Khê,thanh khê,5.947980858943689,2.15564792722474,1.3606497039785568
422,422,422,422,422,422,4.55,51.0,Tây,Nhà trong hẻm,Giấy tờ hợp lệ,3.7,13.8,3,16.0438995,108.2150564, Tiểu La,Hòa Cường Bắc,hải châu,4.181375552417888,1.782537511421301,1.9824285931780337
423,423,423,423,423,423,2.97,77.0,Đông,Nhà trong hẻm,Giấy tờ hợp lệ,5.0,15.4,2,16.0844706,108.1395853, 77 Nguyễn Lương Bằng,Hòa Khánh Bắc,liên chiểu,11.752944290445406,8.183793836048054,7.392495166521861
424,424,424,424,424,424,3.7,60.0,Đông Nam,Nhà trong hẻm,Giấy tờ hợp lệ,4.0,15.0,3,16.0596637,108.1753966, Tôn Đức Thắng,Hòa Minh,liên chiểu,7.7419852425923805,3.8783159118448105,2.9303796768049213
425,425,425,425,425,425,2.95,120.0,Đông Bắc,Nhà trong hẻm,Giấy tờ hợp lệ,4.0,30.0,2,16.0415679,108.1813377, K382 Tôn Đản,Hòa An,cẩm lệ,7.540386123959919,3.81132784558817,2.864890139485825
426,426,426,426,426,426,2.68,60.0,Tây Nam,Nhà trong hẻm,Không có,4.0,15.0,2,16.0645641,108.1700795, Bàu Năng 11,Hòa Minh,liên chiểu,8.289265151146708,4.48011642371401,3.580277342990578
427,427,427,427,427,427,3.5,50.0,Nam,Nhà trong hẻm,Giấy tờ hợp lệ,3.0,17.0,3,16.0443388,108.2192308, Lê Vĩnh Huy,Hòa Cường Bắc,hải châu,3.7886460346281225,1.8804640363279608,2.27446502063428
428,428,428,428,428,428,4.2,50.0,Nam,Nhà trong hẻm,Giấy tờ hợp lệ,3.0,17.0,3,16.0679058,108.2104343, Hoàng Hoa Thám,Thạc Gián,thanh khê,3.985191935149926,0.9209414423796412,1.4456743838233252
429,429,429,429,429,429,2.95,55.0,Đông,Nhà trong hẻm,Giấy tờ hợp lệ,4.1,13.5,3,16.0638683,108.1919701, Hà Huy Tập,Hòa Khê,thanh khê,5.947980858943689,2.15564792722474,1.3606497039785568
430,430,430,430,430,430,3.68,10.0,Đông Nam,Nhà trong hẻm,Giấy tờ hợp lệ,5.5,20.0,3,16.0504729,108.1804546, 269 Tôn Đản,Hòa An,cẩm lệ,7.35443660805293,3.4887791867442446,2.491112185266562
431,431,431,431,431,431,4.6,100.0,Không,Nhà mặt tiền,Không có,10.0,10.0,2,16.0241244,108.2171347, Cách Mạng Tháng 8,Khuê Trung,cẩm lệ,5.562607019073472,3.976662923297844,3.9759391368219577
432,432,432,432,432,432,3.5,34.0,Tây Nam,Nhà mặt tiền,Giấy tờ hợp lệ,7.0,5.0,3,16.0533557,108.1853664, Nguyễn Phước Nguyên,An Khê,thanh khê,6.774998341912,2.8969782532200834,1.8997636081011784
433,433,433,433,433,433,5.2,90.0,Đông,Nhà mặt tiền,Giấy tờ hợp lệ,4.5,18.0,2,16.0549152,108.1724385, Lê Thạch,Hòa An,cẩm lệ,8.11241486104981,4.227701217652402,3.244431311718707
434,434,434,434,434,434,2.87,64.0,Tây Bắc,Nhà trong hẻm,Giấy tờ hợp lệ,4.0,16.0,2,16.0626272,108.1551446, Phạm Như Xương,Hòa Khánh Nam,liên chiểu,9.890437346302232,6.054162955637692,5.119958986818308
435,435,435,435,435,435,4.4,75.0,Đông Nam,Nhà mặt tiền,Giấy tờ hợp lệ,5.0,15.0,3,16.0775276,108.1653082, Phùng Chí Kiên,Hòa Minh,liên chiểu,8.909861511722013,5.337082919859059,4.5856977231146026
436,436,436,436,436,436,4.4,87.0,Tây Bắc,Nhà mặt tiền,Giấy tờ hợp lệ,5.0,17.0,3,16.0775276,108.1653082, Phùng Chí Kiên,Hòa Minh,liên chiểu,8.909861511722013,5.337082919859059,4.5856977231146026
437,437,437,437,437,437,4.5,70.0,Tây Bắc,Nhà mặt tiền,Giấy tờ hợp lệ,6.0,11.0,3,16.0446188,108.187986, Đồng Lợi,An Khê,thanh khê,6.756748979024518,3.029861465746886,2.1002562428249454
438,438,438,438,438,438,3.6,75.0,Đông Bắc,Nhà mặt tiền,Giấy tờ hợp lệ,5.0,15.0,2,16.0759048,108.1762589, Vũ Quỳnh,Thanh Khê Tây,thanh khê,7.724545895647835,4.190728104948768,3.501373229116663
439,439,439,439,439,439,5.4,60.0,Tây,Nhà trong hẻm,Giấy tờ hợp lệ,6.0,10.0,4,16.078156,108.2150772, Lý Tự Trọng,Thanh Bình,hải châu,3.771723411774994,2.0788740580823646,2.670660212424873
440,440,440,440,440,440,2.25,140.0,Tây Bắc,Nhà trong hẻm,Giấy tờ hợp lệ,4.0,25.0,2,16.0392505,108.1852671, Tôn Đản,Hòa Phát,cẩm lệ,7.243350763046908,3.6151117691300856,2.723808498087963
441,441,441,441,441,441,10.0,125.0,Tây Bắc,Nhà mặt tiền,Giấy tờ hợp lệ,5.0,25.0,2,16.0725407,108.1739524, Lý Thái Tông,Hòa Minh,liên chiểu,7.920008383681407,4.276994482866189,3.509161657040663
442,442,442,442,442,442,5.5,83.0,Tây,Nhà mặt tiền,Giấy tờ hợp lệ,7.0,12.0,2,16.0635732,108.1924076, Mai Xuân Thưởng,Hòa Khê,thanh khê,5.901897279738961,2.1030065602422634,1.3036145815677465
443,443,443,443,443,443,4.95,77.0,Đông Bắc,Nhà mặt tiền,Không có,5.0,16.0,3,16.0751789,108.1679273, Phú Lộc 1,Hòa Minh,liên chiểu,8.59498877658454,4.982443497400573,4.215004192479677
444,444,444,444,444,444,4.999,80.0,Đông Bắc,Nhà mặt tiền,Giấy tờ hợp lệ,5.0,18.0,3,16.0768743,108.1613001, Trần Quý Khoách,Hòa Minh,liên chiểu,9.3230983465541,5.713151408100895,4.93166523441203
445,445,445,445,445,445,4.59,7.0,Đông Bắc,Nhà mặt tiền,Giấy tờ hợp lệ,4.5,15.0,3,16.0825005,108.1603489, Lê Thiệt,Hòa Minh,liên chiểu,9.531286737984184,6.041923958396908,5.32242558054408
446,446,446,446,446,446,3.55,70.0,Tây Nam,Nhà mặt tiền,Giấy tờ hợp lệ,5.0,14.0,2,16.0567916,108.1853711, Nguyễn Giản Thanh,An Khê,thanh khê,6.713203817027597,2.828974908799621,1.851158562490544
447,447,447,447,447,447,7.8,100.0,Đông Bắc,Nhà mặt tiền,Giấy tờ hợp lệ,5.0,20.0,2,16.0631819,108.1848702, Huỳnh Ngọc Huệ,Hòa Khê,thanh khê,6.709270586723101,2.890895199502064,2.01527528262713
448,448,448,448,448,448,2.88,6.0,Tây Nam,Nhà trong hẻm,Giấy tờ hợp lệ,2.449489742783178,2.449489742783178,2,16.0583615,108.1683251, Tô Hiệu,Hòa Minh,liên chiểu,8.507768670810812,4.637246247012794,3.676714756835964
449,449,449,449,449,449,3.97,6.0,Đông,Nhà trong hẻm,Giấy tờ hợp lệ,5.5,11.0,3,16.0687479,108.1683392, Hoàng Thị Loan,Hòa Minh,liên chiểu,8.486054202752857,4.741117161049356,3.888249496734956
450,450,450,450,450,450,3.3,60.0,Nam,Nhà trong hẻm,Giấy tờ hợp lệ,4.0,12.0,2,16.0583615,108.1683251, Tô Hiệu,Hòa Minh,liên chiểu,8.507768670810812,4.637246247012794,3.676714756835964
451,451,451,451,451,451,3.35,6.0,Đông Bắc,Nhà trong hẻm,Giấy tờ hợp lệ,5.0,12.0,2,16.0617598,108.1870898, Trần Xuân Lê,Hòa Khê,thanh khê,6.478400144100649,2.6372994879727267,1.7407821355210669
452,452,452,452,452,452,4.1,79.0,Tây Bắc,Nhà trong hẻm,Giấy tờ hợp lệ,4.5,17.0,3,16.0843185,108.2200094, Mai Lão Bạng,Thuận Phước,hải châu,3.647511546857605,2.8712146978225,3.526720668868393
453,453,453,453,453,453,3.75,61.0,Tây Bắc,Nhà trong hẻm,Giấy tờ hợp lệ,5.5,12.0,3,16.0638683,108.1919701, Hà Huy Tập,Hòa Khê,thanh khê,5.947980858943689,2.15564792722474,1.3606497039785568
454,454,454,454,454,454,3.4,75.0,Tây Nam,Nhà trong hẻm,Giấy tờ hợp lệ,5.0,15.0,3,16.0707892,108.1570508, Ngô Thì Nhậm,Hòa Minh,liên chiểu,9.705083679517385,5.969486792675153,5.106612297167938
455,455,455,455,455,455,3.25,60.0,Tây,Nhà trong hẻm,Không có,4.0,15.0,3,16.0604801,108.165628, Ngô Chân Lưu,Hòa Minh,liên chiểu,8.779160289577735,4.924395671938321,3.979524815425038
456,456,456,456,456,456,4.6,63.0,Bắc,Nhà trong hẻm,Giấy tờ hợp lệ,4.5,15.0,3,16.0638683,108.1919701, Hà Huy Tập,Hòa Khê,thanh khê,5.947980858943689,2.15564792722474,1.3606497039785568
457,457,457,457,457,457,2.8,60.0,Đông Bắc,Nhà trong hẻm,Giấy tờ hợp lệ,6.0,10.0,3,16.0596637,108.1753966, Tôn Đức Thắng,Hòa Minh,liên chiểu,7.7419852425923805,3.8783159118448105,2.9303796768049213
458,458,458,458,458,458,2.4,68.0,Đông Nam,Nhà trong hẻm,Giấy tờ hợp lệ,4.0,16.0,2,16.0720556,108.1787232, Dũng Sĩ Thanh Khê,Thanh Khê Tây,thanh khê,7.40673918359789,3.779687431961192,3.0428607700637973
459,459,459,459,459,459,4.59,85.0,Đông Nam,Nhà trong hẻm,Giấy tờ hợp lệ,5.0,17.0,3,16.0660304,108.182963, Trần Cao Vân,Thanh Khê Đông,thanh khê,6.911780426380437,3.148430426905482,2.322831028240368
460,460,460,460,460,460,3.45,60.0,Đông Bắc,Nhà trong hẻm,Giấy tờ hợp lệ,4.0,15.0,3,16.082347,108.1569255, Trần Đình Tri,Hòa Minh,liên chiểu,9.886790192592107,6.369773091523432,5.628908704254626
461,461,461,461,461,461,2.25,79.0,Tây Bắc,Nhà trong hẻm,Không có,5.0,16.0,2,16.0631819,108.1848702, Huỳnh Ngọc Huệ,Hòa Khê,thanh khê,6.709270586723101,2.890895199502064,2.01527528262713
462,462,462,462,462,462,1.59,7.0,Tây Nam,Nhà trong hẻm,Không có,2.6457513110645907,2.6457513110645907,2,16.0392505,108.1852671, Tôn Đản,Hòa Phát,cẩm lệ,7.243350763046908,3.6151117691300856,2.723808498087963
463,463,463,463,463,463,2.2,60.0,Đông Nam,Nhà trong hẻm,Giấy tờ hợp lệ,4.2,16.0,2,16.0638683,108.1919701, Hà Huy Tập,Hòa Khê,thanh khê,5.947980858943689,2.15564792722474,1.3606497039785568
464,464,464,464,464,464,3.5,60.0,Tây Nam,Nhà trong hẻm,Giấy tờ hợp lệ,3.5,17.0,2,16.0317844,108.2443437, Bùi Tá Hán,Khuê Mỹ,ngũ hành sơn,3.679476076556571,4.665337191728721,5.273766949682955
465,465,465,465,465,465,3.45,110.0,Tây,Nhà mặt tiền,Giấy tờ hợp lệ,5.0,22.0,2,15.9970296,108.2144882, Trung Lương 6,Hòa Xuân,cẩm lệ,8.301126373337752,6.937947132612997,6.779438393005035
466,466,466,466,466,466,25.0,96.0,Bắc,Nhà mặt tiền,Giấy tờ hợp lệ,4.5,22.0,4,16.0698397,108.2115701, Lê Duẩn,Tân Chính,thanh khê,3.88841536044275,1.1258653402444132,1.690805522306393
467,467,467,467,467,467,5.3,95.0,Tây Nam,Nhà mặt tiền,Giấy tờ hợp lệ,5.0,19.0,2,16.0217255,108.2443651, Nước Mặn 2,Khuê Mỹ,ngũ hành sơn,4.788698972701003,5.467141409055247,5.944619715252996
468,468,468,468,468,468,27.0,123.0,Đông,Nhà mặt tiền,Giấy tờ hợp lệ,7.0,17.5,2,16.0493796,108.2207225, Núi Thành,Hòa Thuận Đông,hải châu,3.3445135163991093,1.4966070293743554,2.117951390785364
469,469,469,469,469,469,4.95,81.0,Nam,Nhà mặt tiền,Giấy tờ hợp lệ,4.5,18.0,2,16.0293027,108.2435139, Đa Mặn 14,Khuê Mỹ,ngũ hành sơn,3.961677723278492,4.787686259465253,5.352557445307473
470,470,470,470,470,470,5.3,56.0,Tây Bắc,Nhà mặt tiền,Giấy tờ hợp lệ,4.0,14.0,4,16.0644931,108.2310416, An Mỹ,An Hải Tây,sơn trà,1.766797307128528,2.143448615922598,3.1412406515426
471,471,471,471,471,471,10.2,114.0,Đông Bắc,Nhà mặt tiền,Giấy tờ hợp lệ,4.0,28.0,3,16.0564139,108.2085306, Nguyễn Tri Phương,Hòa Thuận Tây,hải châu,4.279077821821316,0.4902164192820177,0.6338678126682145
472,472,472,472,472,472,12.0,81.0,Tây,Nhà mặt tiền,Giấy tờ hợp lệ,4.5,18.0,3,16.0434474,108.2173735, Lê Thanh Nghị,Hòa Cường Bắc,hải châu,4.007019681962558,1.8966254679872487,2.19065966190869
473,473,473,473,473,473,10.5,100.0,Đông Nam,Nhà mặt tiền,Giấy tờ hợp lệ,5.0,20.0,3,16.0699327,108.1866018, Kỳ Đồng,Thanh Khê Đông,thanh khê,6.545045259410139,2.910195520926832,2.221295328304604
474,474,474,474,474,474,10.2,114.0,Đông Bắc,Nhà mặt tiền,Giấy tờ hợp lệ,4.0,29.0,3,16.0564139,108.2085306, Nguyễn Tri Phương,Hòa Thuận Tây,hải châu,4.279077821821316,0.4902164192820177,0.6338678126682145
475,475,475,475,475,475,5.0,83.0,Đông Bắc,Nhà mặt tiền,Giấy tờ hợp lệ,4.5,18.0,3,16.0690991,108.1765516, Nguyễn Văn Huề,Thanh Khê Tây,thanh khê,7.610851489801557,3.8970518805646974,3.08808633431457
476,476,476,476,476,476,7.2,110.0,Đông Bắc,Nhà mặt tiền,Giấy tờ hợp lệ,5.0,22.0,3,16.0257227,108.2439839, Đoàn Khuê,Khuê Mỹ,ngũ hành sơn,4.350993912242096,5.107529359014842,5.629998508433773
477,477,477,477,477,477,13.0,81.0,Tây,Nhà mặt tiền,Không có,4.5,18.0,3,16.0434474,108.2173735, Lê Thanh Nghị,Hòa Cường Bắc,hải châu,4.007019681962558,1.8966254679872487,2.19065966190869
478,478,478,478,478,478,3.7,110.0,Tây,Nhà mặt tiền,Giấy tờ hợp lệ,5.0,22.0,2,15.9980558,108.213865, Trung Lương 7,Hòa Xuân,cẩm lệ,8.22753956392262,6.82184879602733,6.655575284420419
479,479,479,479,479,479,3.5,50.0,Bắc,Nhà mặt tiền,Giấy tờ hợp lệ,5.0,10.0,2,16.0529869,108.2362614, An Trung 5,An Hải Tây,sơn trà,1.787103666812025,2.7361279348655065,3.625293747491609
480,480,480,480,480,480,8.2,86.85547250981791,Không,Nhà mặt tiền,Giấy tờ hợp lệ,10.0,20.0,2,16.0080294,108.2294252, Thanh Lương 6,Hòa Xuân,cẩm lệ,6.584288609210861,6.022628998233685,6.150478235188032
481,481,481,481,481,481,5.75,100.0,Đông Bắc,Nhà mặt tiền,Giấy tờ hợp lệ,5.0,20.0,4,16.017943,108.2323619, Hồ Trung Lượng,Hòa Xuân,cẩm lệ,5.44339739144731,5.121851887140504,5.384022173354155
482,482,482,482,482,482,3.7,50.0,Bắc,Nhà mặt tiền,Giấy tờ hợp lệ,5.0,10.0,2,16.0529869,108.2362614, An Trung 5,An Hải Tây,sơn trà,1.787103666812025,2.7361279348655065,3.625293747491609
483,483,483,483,483,483,3.45,57.0,Không,Nhà trong hẻm,Giấy tờ hợp lệ,4.0,14.25,3,16.0751042,108.2073603, Trần Cao Vân,Tam Thuận,thanh khê,4.446100836465397,1.7687584978483872,2.042094465794425
484,484,484,484,484,484,3.18,60.0,Không,Nhà mặt tiền,Giấy tờ hợp lệ,4.0,18.0,2,16.0799284,108.2295597, Võ Trường Toản,An Hải Bắc,sơn trà,2.544390543542676,2.9501275453604623,3.820583997736009
485,485,485,485,485,485,4.6,7.0,Không,Nhà mặt tiền,Giấy tờ hợp lệ,4.0,18.0,3,16.0894787,108.2293304, Bùi Dương Lịch,Nại Hiên Đông,sơn trà,3.347099477461008,3.803401824555245,4.569988584081849
486,486,486,486,486,486,18.5,100.0,Không,Nhà mặt tiền,Giấy tờ hợp lệ,5.0,20.0,3,16.0612328,108.2231639, Trần Phú,Bình Hiên,hải châu,2.6403876468710354,1.245037700573203,2.2379522000711103
487,487,487,487,487,487,4.25,60.0,Không,Nhà mặt tiền,Giấy tờ hợp lệ,5.0,12.0,2,16.0496147,108.2402526, An Thượng 19,Mỹ An,ngũ hành sơn,1.8619505160102112,3.257297837131415,4.109100581675198
488,488,488,488,488,488,2.5,60.0,Không,Nhà trong hẻm,Giấy tờ hợp lệ,12.0,5.0,2,16.0633931,108.2362933, Lương Thế Vinh,An Hải Đông,sơn trà,1.215663852331567,2.669815913127641,3.662582500898097
489,489,489,489,489,489,2.19,60.0,Không,Nhà mặt tiền,Giấy tờ hợp lệ,4.5,12.0,3,16.0595122,108.218772, Phan Chu Trinh,Nam Dương,hải châu,3.1361190794808373,0.7631526947159141,1.7420667695190786
490,490,490,490,490,490,7.8,80.0,Không,Nhà mặt tiền,Giấy tờ hợp lệ,5.0,16.0,3,16.0490211,108.239116, Ngũ Hành Sơn,Mỹ An,ngũ hành sơn,1.9743201201506904,3.167103588033422,4.0045023187578765
491,491,491,491,491,491,6.5,90.0,Không,Nhà mặt tiền,Giấy tờ hợp lệ,5.0,18.0,3,16.0690147,108.2352154, Phan Bôi,An Hải Bắc,sơn trà,1.396340248281008,2.726304523192471,3.719501358177628
492,492,492,492,492,492,5.9,80.0,Không,Nhà mặt tiền,Giấy tờ hợp lệ,4.0,20.0,3,16.0631864,108.192029, Đoàn Nhữ Hài,Hòa Khê,thanh khê,5.9436047595925645,2.1344440403337845,1.3159057322200387
493,493,493,493,493,493,3.6,5.0,Không,Nhà trong hẻm,Giấy tờ hợp lệ,4.0,1.25,3,16.0751042,108.2073603, Trần Cao Vân,Tam Thuận,thanh khê,4.446100836465397,1.7687584978483872,2.042094465794425
494,494,494,494,494,494,2.95,63.0,Không,Nhà trong hẻm,Giấy tờ hợp lệ,5.0,12.6,3,16.0392505,108.1852671, Tôn Đản,Hòa Phát,cẩm lệ,7.243350763046908,3.6151117691300856,2.723808498087963
495,495,495,495,495,495,3.4,50.0,Không,Nhà trong hẻm,Giấy tờ hợp lệ,4.0,12.5,3,16.0843185,108.2200094, Mai Lão Bạng,Thuận Phước,hải châu,3.647511546857605,2.8712146978225,3.526720668868393
496,496,496,496,496,496,3.45,60.0,Không,Nhà trong hẻm,Giấy tờ hợp lệ,5.0,12.0,3,16.0656447,108.2017156, Điện Biên Phủ,Chính Gián,thanh khê,4.904825881595817,1.25131956440354,0.938080530690646
497,497,497,497,497,497,3.75,81.0,Không,Nhà trong hẻm,Giấy tờ hợp lệ,5.0,16.2,2,16.0638683,108.1919701, Hà Huy Tập,Hòa Khê,thanh khê,5.947980858943689,2.15564792722474,1.3606497039785568
498,498,498,498,498,498,8.0,100.0,Không,Nhà mặt tiền,Giấy tờ hợp lệ,5.0,20.0,3,16.0309023,108.2296002, Nguyễn Sơn,Hòa Cường Nam,hải châu,4.223093007670019,3.718095161509701,4.097259554630439
499,499,499,499,499,499,2.95,55.0,Không,Nhà trong hẻm,Giấy tờ hợp lệ,4.1,13.414634146341465,3,16.0638683,108.1919701, Hà Huy Tập,Hòa Khê,thanh khê,5.947980858943689,2.15564792722474,1.3606497039785568
500,500,500,500,500,500,4.2,71.0,Không,Nhà trong hẻm,Giấy tờ hợp lệ,5.0,14.2,3,16.0720397,108.2156756, Hải Phòng,Tân Chính,hải châu,3.500914436311787,1.43570786241797,2.151338440152693
501,501,501,501,501,501,2.65,51.0,Không,Nhà trong hẻm,Giấy tờ hợp lệ,5.0,10.2,3,16.0698397,108.2115701, Lê Duẩn,Tân Chính,thanh khê,3.88841536044275,1.1258653402444132,1.690805522306393
502,502,502,502,502,502,4.05,85.0,Không,Nhà trong hẻm,Giấy tờ hợp lệ,5.0,17.0,3,16.071472,108.2211764, Lê Duẩn,Hải Châu I,hải châu,2.91425886923023,1.6576154109612464,2.532052967922729
503,503,503,503,503,503,4.29,5.0,Không,Nhà trong hẻm,Giấy tờ hợp lệ,4.0,1.25,4,16.0751042,108.2073603, Trần Cao Vân,Tam Thuận,thanh khê,4.446100836465397,1.7687584978483872,2.042094465794425
504,504,504,504,504,504,3.3,54.0,Không,Nhà trong hẻm,Giấy tờ hợp lệ,5.0,10.8,2,16.0718385,108.1883741, Trần Cao Vân,Xuân Hà,thanh khê,6.378068160242131,2.830663747943176,2.226242239621569
505,505,505,505,505,505,5.85,75.0,Không,Nhà mặt tiền,Giấy tờ hợp lệ,5.0,15.0,3,16.0734017,108.1648473, Phú Xuân 8,Hòa Minh,liên chiểu,8.89882214533866,5.232584044082878,4.425132719858306
506,506,506,506,506,506,2.6,41.0,Không,Nhà trong hẻm,Giấy tờ hợp lệ,4.0,10.25,2,16.0751042,108.2073603, Trần Cao Vân,Tam Thuận,thanh khê,4.446100836465397,1.7687584978483872,2.042094465794425
507,507,507,507,507,507,3.25,5.0,Không,Nhà trong hẻm,Giấy tờ hợp lệ,4.0,1.25,2,16.0660304,108.182963, Trần Cao Vân,Thanh Khê Đông,thanh khê,6.911780426380437,3.148430426905482,2.322831028240368
508,508,508,508,508,508,3.45,70.0,Đông Nam,Nhà trong hẻm,Giấy tờ hợp lệ,4.0,17.5,2,16.0608503,108.1882335, Cù Chính Lan,Hòa Khê,thanh khê,6.36249508351294,2.508154722107072,1.5957250726212269
509,509,509,509,509,509,3.6,70.0,Không,Nhà trong hẻm,Giấy tờ hợp lệ,5.0,14.0,3,16.0434474,108.2173735, Lê Thanh Nghị,Hòa Cường Bắc,hải châu,4.007019681962558,1.8966254679872487,2.19065966190869
510,510,510,510,510,510,4.1,53.0,Không,Nhà trong hẻm,Giấy tờ hợp lệ,5.0,10.6,3,16.0638683,108.1919701, Hà Huy Tập,Hòa Khê,thanh khê,5.947980858943689,2.15564792722474,1.3606497039785568
511,511,511,511,511,511,16.5,121.0,Không,Nhà mặt tiền,Giấy tờ hợp lệ,7.0,17.285714285714285,4,16.0638683,108.1919701, Hà Huy Tập,Hòa Khê,thanh khê,5.947980858943689,2.15564792722474,1.3606497039785568
512,512,512,512,512,512,6.2,100.0,Không,Nhà mặt tiền,Giấy tờ hợp lệ,5.0,20.0,3,16.0534817,108.1772408, Bắc Sơn,Hòa An,cẩm lệ,7.628327178622951,3.7441083055638633,2.7517839672031226
513,513,513,513,513,513,2.35,56.0,Không,Nhà trong hẻm,Giấy tờ hợp lệ,7.0,8.0,2,16.0660304,108.182963, Trần Cao Vân,Thanh Khê Đông,thanh khê,6.911780426380437,3.148430426905482,2.322831028240368
514,514,514,514,514,514,4.95,77.0,Không,Nhà mặt tiền,Giấy tờ hợp lệ,4.5,17.11111111111111,3,16.0751789,108.1679273, Phú Lộc 1,Hòa Minh,liên chiểu,8.59498877658454,4.982443497400573,4.215004192479677
515,515,515,515,515,515,5.2,60.0,Tây,Nhà trong hẻm,Không có,4.0,15.0,3,16.0602491,108.2136695, Nguyễn Văn Linh,Nam Dương,hải châu,3.6613011326956393,0.2263800987938418,1.2243334529593215
516,516,516,516,516,516,3.85,50.0,Không,Nhà trong hẻm,Giấy tờ hợp lệ,4.0,12.5,3,16.0755129,108.210948, Đinh Tiên Hoàng,Bình Thuận,hải châu,4.088775719923616,1.755202422026524,2.210040858178984
517,517,517,517,517,517,4.3,85.0,Không,Nhà mặt tiền,Giấy tờ hợp lệ,4.5,18.88888888888889,2,16.0578647,108.1734117, Nguyễn Văn Tạo,Hòa An,cẩm lệ,7.9707787380120765,4.095576047111333,3.131073314468172
518,518,518,518,518,518,4.29,60.0,Không,Nhà trong hẻm,Giấy tờ hợp lệ,4.0,15.0,3,16.0565049,108.2093571, Phạm Văn Nghị,Vĩnh Trung,thanh khê,4.190594104333655,0.4267387865709144,0.7203671662796977
519,519,519,519,519,519,4.45,66.0,Không,Nhà trong hẻm,Giấy tờ hợp lệ,4.0,16.5,3,16.0438995,108.2150564, Tiểu La,Hòa Cường Bắc,hải châu,4.181375552417888,1.782537511421301,1.9824285931780337
520,520,520,520,520,520,3.55,51.0,Đông Bắc,Nhà trong hẻm,Giấy tờ hợp lệ,4.0,12.75,3,16.0638683,108.1919701, Hà Huy Tập,Hòa Khê,thanh khê,5.947980858943689,2.15564792722474,1.3606497039785568
521,521,521,521,521,521,2.75,50.0,Không,Nhà trong hẻm,Giấy tờ hợp lệ,5.0,10.0,2,16.0608503,108.1882335, Cù Chính Lan,Hòa Khê,thanh khê,6.36249508351294,2.508154722107072,1.5957250726212269
522,522,522,522,522,522,3.8,70.0,Không,Nhà trong hẻm,Giấy tờ hợp lệ,4.0,17.5,3,16.0608503,108.1882335, Cù Chính Lan,Hòa Khê,thanh khê,6.36249508351294,2.508154722107072,1.5957250726212269
523,523,523,523,523,523,2.68,50.0,Tây Nam,Nhà trong hẻm,Giấy tờ hợp lệ,8.0,6.25,2,16.0651121,108.2111701, Hùng Vương,Vĩnh Trung,thanh khê,3.892570365243455,0.6047946017099922,1.2614865291769353
524,524,524,524,524,524,4.15,51.0,Bắc,Nhà trong hẻm,Giấy tờ hợp lệ,4.0,12.75,3,16.0751042,108.2073603, Trần Cao Vân,Tam Thuận,thanh khê,4.446100836465397,1.7687584978483872,2.042094465794425
525,525,525,525,525,525,3.65,51.0,Không,Nhà trong hẻm,Giấy tờ hợp lệ,4.0,12.75,3,16.0757672,108.2135372, Ông Ích Khiêm,Thanh Bình,hải châu,3.8330059149601023,1.7932792754357365,2.3594096584607738
526,526,526,526,526,526,3.98,50.0,Không,Nhà trong hẻm,Giấy tờ hợp lệ,4.0,12.5,3,16.0438995,108.2150564, Tiểu La,Hòa Cường,hải châu,4.181375552417888,1.782537511421301,1.9824285931780337
527,527,527,527,527,527,4.5,70.0,Không,Nhà trong hẻm,Giấy tờ hợp lệ,5.0,14.0,3,16.0562861,108.217152, Hoàng Diệu,Bình Thuận,hải châu,3.388998407675905,0.6982315253644558,1.5535481531126378
528,528,528,528,528,528,3.55,55.0,Không,Nhà trong hẻm,Giấy tờ hợp lệ,5.0,11.0,2,16.0438995,108.2150564, Tiểu La,Hòa Cường Bắc,hải châu,4.181375552417888,1.782537511421301,1.9824285931780337
529,529,529,529,529,529,3.6,65.0,Không,Nhà trong hẻm,Giấy tờ hợp lệ,4.15,16.0,2,16.0608503,108.1882335, Cù Chính Lan,Hòa Khê,thanh khê,6.36249508351294,2.508154722107072,1.5957250726212269
