Prices,Area,toFace,type,certificate,width,length,floors,Latitude,Longitude,Street,Ward,District,distance_to_beach,distance_to_center,distance_to_airport,log_prices,log_area,log_floors,log_width,log_length,log_distance_to_beach,log_distance_to_center
4.1,60.0,Không,Nhà mặt tiền,Giấy tờ hợp lệ,4.5,15.0,5,16.0484714,108.2406022, An Thượng 18,Mỹ An,ngũ hành sơn,1.963053599086896,3.3373555285958,4.173249433381312,1.410986973710262,4.0943445622221,1.6094379124341003,1.5040773967762742,2.70805020110221,0.6745012196015866,1.2051787354773253
3.3,90.0,Không,Nhà mặt tiền,Giấy tờ hợp lệ,5.0,18.0,2,16.0595231,108.179155, Trường Chinh,Hòa An,cẩm lệ,7.342261974734708,3.4761945440084063,2.528594798354249,1.1939224684724346,4.499809670330265,0.6931471805599453,1.6094379124341003,2.8903717578961645,1.993646966096295,1.2459381736184825
15.0,153.0,Không,Nhà mặt tiền,Giấy tờ hợp lệ,6.0,27.0,3,16.0756243,108.2319079, Ngô Quyền,An Hải Bắc,sơn trà,2.0522137939375127,2.796568797472516,3.733505998421484,2.70805020110221,5.030437921392435,1.0986122886681098,1.791759469228055,3.295836866004329,0.718919109960032,1.0283932362543946
6.5,90.0,Không,Nhà mặt tiền,Giấy tờ hợp lệ,14.0,7.0,1,16.0334743,108.2218767, Tiên Sơn 10,Hòa Cường Nam,hải châu,4.4308393785108064,3.098364942182785,3.3360939696302885,1.8718021769015913,4.499809670330265,0.0,2.6390573296152584,1.9459101490553132,1.4885890420705488,1.1308745343411937
11.0,100.0,Không,Nhà mặt tiền,Giấy tờ hợp lệ,5.0,20.0,5,16.0766319,108.2329889, Hoàng Đức Lương,An Hải Bắc,sơn trà,2.0285804698849543,2.956690879373904,3.8913844027825344,2.3978952727983707,4.605170185988092,1.6094379124341003,1.6094379124341003,2.995732273553991,0.7073362725275103,1.08407069681057
7.2,100.0,Không,Nhà mặt tiền,Giấy tờ hợp lệ,5.0,20.0,3,16.0366455,108.2211218, Tiên Sơn 8,Hòa Cường Nam,hải châu,4.214947052772332,2.7419693794412834,3.013796631241829,1.9740810260220096,4.605170185988092,1.0986122886681098,1.6094379124341003,2.995732273553991,1.4386370297550708,1.0086764138426423
2.9,100.0,Không,Nhà mặt tiền,Giấy tờ hợp lệ,5.0,20.0,2,15.9921331,108.2064071, Huỳnh Tịnh Của,Xã Hòa Châu,hòa vang,9.176493365212188,7.4940639923443,7.213283757067011,1.0647107369924282,4.605170185988092,0.6931471805599453,1.6094379124341003,2.995732273553991,2.216645145296697,2.014111239478926
3.5,100.0,Không,Nhà mặt tiền,Giấy tờ hợp lệ,5.0,20.0,2,16.0494345,108.1483198, Huỳnh Thị Bảo Hòa,Hòa Khánh Nam,liên chiểu,10.754737983679991,6.869715018951979,5.878732249688591,1.252762968495368,4.605170185988092,0.6931471805599453,1.6094379124341003,2.995732273553991,2.3753464001430578,1.9271226234163583
4.7,100.0,Không,Nhà mặt tiền,Giấy tờ hợp lệ,5.0,20.0,3,16.0199418,108.207474, Lưu Nhân Chú,Khuê Trung,cẩm lệ,6.567421705172774,4.418387202068741,4.156857940946859,1.547562508716013,4.605170185988092,1.0986122886681098,1.6094379124341003,2.995732273553991,1.8821213209492476,1.4857747430925754
25.0,313.0,Không,Nhà mặt tiền,Giấy tờ hợp lệ,7.0,48.0,4,16.0705872,108.1527666, Tôn Đức Thắng,Hòa Khánh Bắc,liên chiểu,10.161087742443131,6.414493194001564,5.540379991525375,3.2188758248682006,5.746203190540153,1.3862943611198906,1.9459101490553132,3.871201010907891,2.3185654976837755,1.858559991673343
4.7,80.0,Không,Nhà mặt tiền,Giấy tờ hợp lệ,4.5,15.0,2,16.0302822,108.2128971, Hóa Mỹ,Khuê Trung,cẩm lệ,5.330664885991734,3.2543363029306933,3.175366210109518,1.547562508716013,4.382026634673881,0.6931471805599453,1.5040773967762742,2.70805020110221,1.6734759744863619,1.1799883540805989
3.5,105.0,Không,Nhà mặt tiền,Giấy tờ hợp lệ,5.0,20.0,2,16.0414482,108.1675716, Phước Lý 6,Hòa Minh,liên chiểu,8.942538929458276,5.128648492794901,4.140951408162975,1.252762968495368,4.653960350157523,0.6931471805599453,1.6094379124341003,2.995732273553991,2.1908195454497266,1.6348421727762832
5.2,75.0,Không,Nhà mặt tiền,Không có,5.0,15.0,3,16.0805678,108.1589765, Hoà Minh 15,Hòa Minh,liên chiểu,9.634316316936028,6.09125443800974,5.341228009145581,1.6486586255873816,4.31748811353631,1.0986122886681098,1.6094379124341003,2.70805020110221,2.2653313410649174,1.806854043762999
6.6,105.0,Không,Nhà mặt tiền,Giấy tờ hợp lệ,5.0,22.0,3,16.0585049,108.185654, Lý Triện,An Khê,thanh khê,6.660404026000368,2.783721542377011,1.825846780232388,1.8870696490323797,4.653960350157523,1.0986122886681098,1.6094379124341003,3.091042453358316,1.8961801472768973,1.023788716771857
5.7,100.0,Không,Nhà mặt tiền,Giấy tờ hợp lệ,5.0,20.0,3,16.0077874,108.2280883, Thanh Lương 8,Hòa Xuân,cẩm lệ,6.653270170396843,6.00455871554334,6.109145890598027,1.7404661748405046,4.605170185988092,1.0986122886681098,1.6094379124341003,2.995732273553991,1.8951084887428171,1.7925189666607384
4.7,80.0,Không,Nhà mặt tiền,Giấy tờ hợp lệ,5.0,14.0,2,16.0302822,108.2128971, Hóa Mỹ,Khuê Trung,cẩm lệ,5.330664885991734,3.2543363029306933,3.175366210109518,1.547562508716013,4.382026634673881,0.6931471805599453,1.6094379124341003,2.6390573296152584,1.6734759744863619,1.1799883540805989
6.7,100.0,Không,Nhà mặt tiền,Giấy tờ hợp lệ,5.0,20.0,3,16.0009105,108.2130994, Văn Tiến Dũng,Hòa Xuân,cẩm lệ,7.982278306406917,6.503671979037734,6.3301303601758665,1.9021075263969205,4.605170185988092,1.0986122886681098,1.6094379124341003,2.995732273553991,2.0772238727697654,1.8723669372464007
3.75,113.0,Không,Nhà mặt tiền,Giấy tờ hợp lệ,5.0,23.0,3,16.0428383,108.1690992, Phước Lý 5,Hòa Minh,liên chiểu,8.742024245644506,4.918467305409218,3.9285089676563874,1.3217558399823195,4.727387818712341,1.0986122886681098,1.6094379124341003,3.1354942159291497,2.1681417699038183,1.592996958679947
6.8,100.0,Không,Nhà mặt tiền,Không có,5.0,20.0,3,16.0009105,108.2130994, Văn Tiến Dũng,Hòa Xuân,cẩm lệ,7.982278306406917,6.503671979037734,6.3301303601758665,1.916922612182061,4.605170185988092,1.0986122886681098,1.6094379124341003,2.995732273553991,2.0772238727697654,1.8723669372464007
4.75,120.0,Không,Nhà mặt tiền,Giấy tờ hợp lệ,5.0,24.0,3,16.0093672,108.2225957, Phạm Xuân Ẩn,Hòa Xuân,cẩm lệ,6.699318911934934,5.688098180830738,5.708483162565261,1.55814461804655,4.787491742782046,1.0986122886681098,1.6094379124341003,3.1780538303479458,1.9020058662946226,1.7383759533981613
6.4,95.0,Không,Nhà mặt tiền,Không có,5.0,19.0,3,15.9975739,108.2002439, Nguyễn Hồng Ánh,Xã Hòa Châu,hòa vang,9.006565799174593,6.978455406345205,6.605174206546393,1.8562979903656263,4.553876891600541,1.0986122886681098,1.6094379124341003,2.9444389791664403,2.1979538445978184,1.942827603797145
2.75,60.0,Không,Nhà trong hẻm,Giấy tờ hợp lệ,4.5,15.0,2,16.0698397,108.2115701, Lê Duẩn,Tân Chính,thanh khê,3.88841536044275,1.1258653402444132,1.690805522306393,1.0116009116784799,4.0943445622221,0.6931471805599453,1.5040773967762742,2.70805020110221,1.3580017122817223,0.11855193130871218
2.6,100.0,Không,Nhà trong hẻm,Giấy tờ hợp lệ,5.0,20.0,2,16.0554848,108.1553766, Hoàng Văn Thái,Hòa Khánh Nam,liên chiểu,9.917383246685455,6.03832112693159,5.063737357990122,0.9555114450274363,4.605170185988092,0.6931471805599453,1.6094379124341003,2.995732273553991,2.2942891008828505,1.7981260141916418
3.8,50.0,Không,Nhà trong hẻm,Giấy tờ hợp lệ,4.5,12.0,3,16.0672041,108.2443275, Hà Bổng,Phước Mỹ,sơn trà,0.4293659485725036,3.5955084989864625,4.592833762470426,1.33500106673234,3.912023005428146,1.0986122886681098,1.5040773967762742,2.4849066497880004,-0.8454456966993269,1.2796854273419214
3.35,70.0,Không,Nhà trong hẻm,Giấy tờ hợp lệ,4.0,17.5,3,16.0604801,108.165628, Ngô Chân Lưu,Hòa Minh,liên chiểu,8.779160289577735,4.924395671938321,3.979524815425038,1.208960345836975,4.248495242049359,1.0986122886681098,1.3862943611198906,2.8622008809294686,2.1723807640730666,1.5942015608896127
2.55,80.0,Không,Nhà trong hẻm,Không có,5.0,16.0,2,16.0723048,108.1472133, Đồng Kè,Hòa Khánh Bắc,liên chiểu,10.766967754382824,7.034231089625177,6.163786505545406,0.9360933591703348,4.382026634673881,0.6931471805599453,1.6094379124341003,2.772588722239781,2.3764829059728516,1.9507883867428968
1.75,70.0,Không,Nhà trong hẻm,Giấy tờ hợp lệ,4.5,16.0,1,16.041122,108.184901, Trường Chinh,Hòa Phát,cẩm lệ,7.201188503435208,3.5211905308176226,2.6049738435175485,0.5596157879354227,4.248495242049359,0.0,1.5040773967762742,2.772588722239781,1.974246082321026,1.2587991514091381
3.69,85.0,Không,Nhà trong hẻm,Giấy tờ hợp lệ,5.0,16.0,3,16.0583615,108.1683251, Tô Hiệu,Hòa Minh,liên chiểu,8.507768670810812,4.637246247012794,3.676714756835964,1.3056264580524357,4.442651256490317,1.0986122886681098,1.6094379124341003,2.772588722239781,2.1409797073598384,1.5341207088112163
5.95,13.0,Không,Nhà trong hẻm,Giấy tờ hợp lệ,5.8,23.0,3,16.044107,108.2060114, Trưng Nữ Vương,Hòa Thuận Tây,hải châu,5.004469849198954,1.824090898313722,1.494315801070678,1.7833912195575383,2.5649493574615367,1.0986122886681098,1.7578579175523736,3.1354942159291497,1.6103314829208426,0.6010817250122584
6.0,150.0,Không,Nhà trong hẻm,Giấy tờ hợp lệ,6.0,25.0,3,16.044107,108.2060114, Trưng Nữ Vương,Hòa Thuận Tây,hải châu,5.004469849198954,1.824090898313722,1.494315801070678,1.791759469228055,5.0106352940962555,1.0986122886681098,1.791759469228055,3.2188758248682006,1.6103314829208426,0.6010817250122584
2.8,70.0,Không,Nhà trong hẻm,Giấy tờ hợp lệ,6.0,12.0,1,16.0929062,108.2484832, Võ Duy Ninh,Thọ Quang,sơn trà,3.101851419860263,5.3914983589475565,6.295157134681375,1.0296194171811581,4.248495242049359,0.0,1.791759469228055,2.4849066497880004,1.1319991654319068,1.68482333496223
2.55,65.0,Không,Nhà trong hẻm,Giấy tờ hợp lệ,4.5,15.0,2,16.0674661,108.1932536, Thái Thị Bôi,Chính Gián,thanh khê,5.816508032438447,2.148548751079927,1.5167105211395546,0.9360933591703348,4.174387269895637,0.6931471805599453,1.5040773967762742,2.70805020110221,1.7607000872482765,0.7647926147271348
3.2,70.0,Không,Nhà trong hẻm,Giấy tờ hợp lệ,5.0,13.0,2,16.0718385,108.1883741, Trần Cao Vân,Xuân Hà,thanh khê,6.378068160242131,2.830663747943176,2.226242239621569,1.1631508098056809,4.248495242049359,0.6931471805599453,1.6094379124341003,2.5649493574615367,1.85286525530438,1.0405112240642111
2.15,60.0,Không,Nhà trong hẻm,Giấy tờ hợp lệ,4.5,15.0,2,16.0415679,108.1813377, Tôn Đản,Hòa An,cẩm lệ,7.540386123959919,3.81132784558817,2.864890139485825,0.7654678421395714,4.0943445622221,0.6931471805599453,1.5040773967762742,2.70805020110221,2.0202733907829336,1.3379776443234563
3.65,80.0,Không,Nhà trong hẻm,Giấy tờ hợp lệ,4.5,18.0,1,16.044107,108.2060114, Trưng Nữ Vương,Hòa Thuận Tây,hải châu,5.004469849198954,1.824090898313722,1.494315801070678,1.2947271675944,4.382026634673881,0.0,1.5040773967762742,2.8903717578961645,1.6103314829208426,0.6010817250122584
1.65,55.0,Không,Nhà trong hẻm,Giấy tờ hợp lệ,4.5,14.0,1,16.0595231,108.179155, Trường Chinh,Hòa An,cẩm lệ,7.342261974734708,3.4761945440084063,2.528594798354249,0.5007752879124892,4.007333185232471,0.0,1.5040773967762742,2.6390573296152584,1.993646966096295,1.2459381736184825
2.7,120.0,Không,Nhà trong hẻm,Giấy tờ hợp lệ,5.0,24.0,2,16.0912421,108.2445524, Ngô Quyền,Thọ Quang,sơn trà,2.933658679472832,4.9607252355791065,5.8533697970942535,0.9932517730102834,4.787491742782046,0.6931471805599453,1.6094379124341003,3.1780538303479458,1.0762503401222558,1.6015519468988206
3.15,100.0,Không,Nhà trong hẻm,Giấy tờ hợp lệ,4.5,22.0,2,16.0723048,108.1472133, Đồng Kè,Hòa Khánh Bắc,liên chiểu,10.766967754382824,7.034231089625177,6.163786505545406,1.1474024528375417,4.605170185988092,0.6931471805599453,1.5040773967762742,3.091042453358316,2.3764829059728516,1.9507883867428968
1.85,120.0,Không,Nhà trong hẻm,Giấy tờ hợp lệ,5.0,24.0,1,16.0031472,108.1876854, Nguyễn Như Đỗ,Hòa Thọ Tây,cẩm lệ,9.366062087864112,6.759358797217937,6.194398151067429,0.6151856390902335,4.787491742782046,0.0,1.6094379124341003,3.1780538303479458,2.23709273980879,1.9109280330735379
3.69,70.0,Không,Nhà trong hẻm,Giấy tờ hợp lệ,4.5,16.0,2,16.0583615,108.1683251, Tô Hiệu,Hòa Minh,liên chiểu,8.507768670810812,4.637246247012794,3.676714756835964,1.3056264580524357,4.248495242049359,0.6931471805599453,1.5040773967762742,2.772588722239781,2.1409797073598384,1.5341207088112163
3.65,90.0,Không,Nhà trong hẻm,Giấy tờ hợp lệ,5.0,18.0,3,16.0392505,108.1852671, Tôn Đản,Hòa Phát,cẩm lệ,7.243350763046908,3.6151117691300856,2.723808498087963,1.2947271675944,4.499809670330265,1.0986122886681098,1.6094379124341003,2.8903717578961645,1.9800839119084575,1.2851227732877055
2.83,110.0,Không,Nhà trong hẻm,Giấy tờ hợp lệ,5.0,22.0,2,16.0756243,108.2319079, Ngô Quyền,An Hải Bắc,sơn trà,2.0522137939375127,2.796568797472516,3.733505998421484,1.0402767116551463,4.700480365792417,0.6931471805599453,1.6094379124341003,3.091042453358316,0.718919109960032,1.0283932362543946
1.49,36.0,Tây,Nhà trong hẻm,Giấy tờ hợp lệ,4.1,8.78048780487805,2,16.0751042,108.2073603, Trần Cao Vân,Tam Thuận,thanh khê,4.446100836465397,1.7687584978483872,2.042094465794425,0.3987761199573678,3.58351893845611,0.6931471805599453,1.410986973710262,2.172531964745848,1.4920274955514325,0.5702778868351202
5.35,125.0,Không,Nhà mặt tiền,Giấy tờ hợp lệ,5.0,25.0,2,16.0138538,108.1958513, Cách Mạng Tháng 8,Hòa Thọ Đông,cẩm lệ,7.905836607919737,5.343723328342092,4.853666284353989,1.6770965609079151,4.8283137373023015,0.6931471805599453,1.6094379124341003,3.2188758248682006,2.0676012978154645,1.6759226625030326
3.9,100.0,Không,Nhà mặt tiền,Giấy tờ hợp lệ,5.0,20.0,2,16.0003372,108.2132929, Lỗ Giáng 6,Hòa Xuân,cẩm lệ,8.029127266028906,6.567619091972675,6.3962359635519785,1.3609765531356006,4.605170185988092,0.6931471805599453,1.6094379124341003,2.995732273553991,2.083075837871408,1.88215137594534
6.35,110.0,Không,Nhà mặt tiền,Giấy tờ hợp lệ,5.5,20.0,3,16.0172054,108.2084021, Phan Văn Trị,Khuê Trung,cẩm lệ,6.737453259158979,4.711399097584559,4.470048515679327,1.8484548129046001,4.700480365792417,1.0986122886681098,1.7047480922384253,2.995732273553991,1.9076819987949445,1.5499849122376488
5.8,100.0,Không,Nhà mặt tiền,Giấy tờ hợp lệ,5.0,20.0,2,16.0140539,108.2065002, Đặng Văn Ngữ,Khuê Trung,cẩm lệ,7.137386580316552,5.077269085625017,4.794029631415255,1.7578579175523736,4.605170185988092,0.6931471805599453,1.6094379124341003,2.995732273553991,1.9653466841821825,1.624773535471733
8.5,100.0,Không,Nhà mặt tiền,Giấy tờ hợp lệ,5.0,20.0,4,16.025345,108.2121536, Bình Hòa 4,Khuê Trung,cẩm lệ,5.787561027724534,3.798302738258644,3.6702146649684217,2.1400661634962708,4.605170185988092,1.3862943611198906,1.6094379124341003,2.995732273553991,1.7557109641039768,1.3345543191288158
6.0,110.0,Không,Nhà mặt tiền,Giấy tờ hợp lệ,5.0,22.0,1,16.0063777,108.2078822, Phạm Hùng,Hòa Xuân,cẩm lệ,7.742359078689389,5.910516326332974,5.653504684737835,1.791759469228055,4.700480365792417,0.0,1.6094379124341003,3.091042453358316,2.0467064316907835,1.776733192463675
4.15,80.0,Không,Nhà mặt tiền,Giấy tờ hợp lệ,5.0,16.0,3,16.0221996,108.2129834, Bình Hòa 14,Khuê Trung,cẩm lệ,5.999896146427057,4.148459751680958,4.0292800065276175,1.423108334242607,4.382026634673881,1.0986122886681098,1.6094379124341003,2.772588722239781,1.7917421601494299,1.422737121178299
4.9,100.0,Không,Nhà mặt tiền,Giấy tờ hợp lệ,5.0,20.0,3,16.0214579,108.1974153, Nguyễn Khoa Chiêm,Hòa Thọ Đông,cẩm lệ,7.202834201160636,4.493786762439407,3.996799432333303,1.589235205116581,4.605170185988092,1.0986122886681098,1.6094379124341003,2.995732273553991,1.9744745876165728,1.5026957232469493
7.5,75.0,Không,Nhà mặt tiền,Giấy tờ hợp lệ,5.7,13.0,2,16.0241244,108.2171347, Cách Mạng Tháng 8,Khuê Trung,cẩm lệ,5.562607019073472,3.976662923297844,3.9759391368219577,2.0149030205422647,4.31748811353631,0.6931471805599453,1.7404661748405046,2.5649493574615367,1.7160668866912792,1.3804430061079553
5.0,120.0,Không,Nhà mặt tiền,Giấy tờ hợp lệ,5.0,24.0,3,16.0198819,108.1968795, Hoàng Đạo Thúy,Hòa Thọ Đông,cẩm lệ,7.362495333947553,4.67730194197463,4.177651059850487,1.6094379124341003,4.787491742782046,1.0986122886681098,1.6094379124341003,3.1780538303479458,1.9963989152182586,1.5427214355597698
4.8,67.0,Không,Nhà mặt tiền,Giấy tờ hợp lệ,11.07,6.91,4,16.0227751,108.200433, Trường Chinh,Hòa Thọ Đông,cẩm lệ,6.865870059732111,4.254857679806927,3.818833798247972,1.5686159179138452,4.204692619390966,1.3862943611198906,2.4042387467205457,1.9329696377795786,1.9265627696790373,1.448061313711995
18.8,170.0,Đông,Nhà mặt tiền,Giấy tờ hợp lệ,5.0,34.0,4,16.0524115,108.2090289, Nguyễn Hữu Thọ,Hòa Thuận Tây,hải châu,4.346895782169306,0.8500454561579067,0.8639978075900642,2.9338568698359038,5.135798437050262,1.3862943611198906,1.6094379124341003,3.5263605246161616,1.4694619770630142,-0.1624654530948318
4.4,95.0,Không,Nhà mặt tiền,Giấy tờ hợp lệ,5.0,19.0,3,16.0212756,108.2004817, Bùi Vịnh,Hòa Thọ Đông,cẩm lệ,6.975815789478457,4.412896672312063,3.984146342579829,1.4816045409242156,4.553876891600541,1.0986122886681098,1.6094379124341003,2.9444389791664403,1.9424492799332629,1.4845313156267184
3.9,90.0,Không,Nhà mặt tiền,Giấy tờ hợp lệ,5.0,18.0,3,16.0212756,108.2004817, Bùi Vịnh,Hòa Thọ Đông,cẩm lệ,6.975815789478457,4.412896672312063,3.984146342579829,1.3609765531356006,4.499809670330265,1.0986122886681098,1.6094379124341003,2.8903717578961645,1.9424492799332629,1.4845313156267184
3.55,75.0,Không,Nhà mặt tiền,Giấy tờ hợp lệ,5.0,15.0,2,16.0209382,108.2085527, Nguyễn Nho Túy,Khuê Trung,cẩm lệ,6.408548915209292,4.2982891399878405,4.0637579306465055,1.2669476034873244,4.31748811353631,0.6931471805599453,1.6094379124341003,2.70805020110221,1.8576328670226658,1.4582170691050553
14.0,90.0,Không,Nhà mặt tiền,Giấy tờ hợp lệ,7.0,15.0,2,16.0138538,108.1958513, Cách Mạng Tháng 8,Hòa Thọ Đông,cẩm lệ,7.905836607919737,5.343723328342092,4.853666284353989,2.6390573296152584,4.499809670330265,0.6931471805599453,1.9459101490553132,2.70805020110221,2.0676012978154645,1.6759226625030326
24.0,50.0,Không,Nhà mặt tiền,Giấy tờ hợp lệ,15.0,17.0,2,16.0086953,108.2188325, Võ Chí Công,Hòa Xuân,cẩm lệ,6.936356435136482,5.692597833674528,5.641274190414564,3.1780538303479458,3.912023005428146,0.6931471805599453,2.70805020110221,2.833213344056216,1.9367766273067222,1.7391667052243271
3.85,126.0,Không,Nhà mặt tiền,Giấy tờ hợp lệ,6.0,21.0,2,16.0112356,108.2002191, Bình Thái 4,Hòa Thọ Đông,cẩm lệ,7.804217058592689,5.496878681377828,5.095032287792605,1.3480731482996928,4.836281906951478,0.6931471805599453,1.791759469228055,3.044522437723423,2.054664236135306,1.7041804186655087
2.85,100.0,Không,Nhà mặt tiền,Giấy tờ hợp lệ,5.0,20.0,2,15.9794185,108.2192149, Liêm Lạc 15,Hòa Xuân,cẩm lệ,9.932408855337153,8.916987728385154,8.789450540140587,1.0473189942805592,4.605170185988092,0.6931471805599453,1.6094379124341003,2.995732273553991,2.2958030322574814,2.1879581909473718
4.3,90.0,Không,Nhà mặt tiền,Giấy tờ hợp lệ,5.0,18.0,3,16.0190372,108.2057322, Trương Quang Giao,Khuê Trung,cẩm lệ,6.765379771239815,4.540180098492836,4.237713596545324,1.4586150226995167,4.499809670330265,1.0986122886681098,1.6094379124341003,2.8903717578961645,1.911818397702645,1.5129666805380018
3.3,100.0,Không,Nhà mặt tiền,Giấy tờ hợp lệ,5.0,20.0,2,15.9992464,108.2116823, Đô Đốc Tuyết,Hòa Xuân,cẩm lệ,8.215806830890585,6.685949227526858,6.487185031815344,1.1939224684724346,4.605170185988092,0.6931471805599453,1.6094379124341003,2.995732273553991,2.1060599610171673,1.9000081941202636
11.0,140.0,Không,Nhà mặt tiền,Giấy tờ hợp lệ,5.9,25.0,1,16.0241244,108.2171347, Cách Mạng Tháng 8,Khuê Trung,cẩm lệ,5.562607019073472,3.976662923297844,3.9759391368219577,2.3978952727983707,4.941642422609304,0.0,1.7749523509116738,3.2188758248682006,1.7160668866912792,1.3804430061079553
4.2,145.0,Không,Nhà mặt tiền,Giấy tờ hợp lệ,6.0,24.0,3,16.0117393,108.1982179, Nguyễn Nhàn,Hòa Thọ Đông,cẩm lệ,7.903302811120536,5.494613663834648,5.055019746732804,1.4350845252893227,4.976733742420574,1.0986122886681098,1.791759469228055,3.1780538303479458,2.0672807494600183,1.7037682785294648
4.3,135.0,Không,Nhà mặt tiền,Giấy tờ hợp lệ,5.4,25.0,2,16.0154633,108.2036738, Bình Thái 3,Hòa Thọ Đông,cẩm lệ,7.208361744855669,4.965169458553947,4.621729814299202,1.4586150226995167,4.90527477843843,0.6931471805599453,1.6863989535702288,3.2188758248682006,1.975241705624933,1.602447427539865
4.9,125.0,Không,Nhà mặt tiền,Giấy tờ hợp lệ,5.0,25.0,2,16.0240456,108.2103341, Nguyễn Trung Ngạn,Khuê Trung,cẩm lệ,6.023948747153598,3.944180730095847,3.761377119367541,1.589235205116581,4.8283137373023015,0.6931471805599453,1.6094379124341003,3.2188758248682006,1.795742982352766,1.372241259751312
20.0,310.0,Không,Nhà mặt tiền,Giấy tờ hợp lệ,11.2,26.0,3,16.0241244,108.2171347, Cách Mạng Tháng 8,Khuê Trung,cẩm lệ,5.562607019073472,3.976662923297844,3.9759391368219577,2.995732273553991,5.736572297479192,1.0986122886681098,2.4159137783010487,3.258096538021482,1.7160668866912792,1.3804430061079553
5.4,90.0,Không,Nhà mặt tiền,Giấy tờ hợp lệ,5.0,18.0,2,16.0277607,108.2121296, Trần Kim Bảng,Khuê Trung,cẩm lệ,5.5899031392691,3.5309748773522127,3.413365163948269,1.6863989535702288,4.499809670330265,0.6931471805599453,1.6094379124341003,2.8903717578961645,1.7209619595158294,1.2615740020390955
3.9,120.0,Không,Nhà mặt tiền,Giấy tờ hợp lệ,5.0,24.0,2,16.0212756,108.2004817, Bùi Vịnh,Hòa Thọ Đông,cẩm lệ,6.975815789478457,4.412896672312063,3.984146342579829,1.3609765531356006,4.787491742782046,0.6931471805599453,1.6094379124341003,3.1780538303479458,1.9424492799332629,1.4845313156267184
4.1,100.0,Không,Nhà mặt tiền,Giấy tờ hợp lệ,5.0,20.0,2,16.0203761,108.204959, Trần Huy Liệu,Khuê Trung,cẩm lệ,6.710885434355904,4.406181976639599,4.084206801768412,1.410986973710262,4.605170185988092,0.6931471805599453,1.6094379124341003,2.995732273553991,1.9037308997080646,1.4830085495335108
3.75,100.0,Không,Nhà mặt tiền,Giấy tờ hợp lệ,5.0,20.0,3,15.9992464,108.2116823, Đô Đốc Tuyết,Hòa Xuân,cẩm lệ,8.215806830890585,6.685949227526858,6.487185031815344,1.3217558399823195,4.605170185988092,1.0986122886681098,1.6094379124341003,2.995732273553991,2.1060599610171673,1.9000081941202636
2.85,100.0,Không,Nhà mặt tiền,Giấy tờ hợp lệ,5.0,20.0,2,15.9826151,108.2196458, Liêm Lạc 21,Hòa Xuân,cẩm lệ,9.58169391243945,8.56926792618709,8.453068542238507,1.0473189942805592,4.605170185988092,0.6931471805599453,1.6094379124341003,2.995732273553991,2.259854393934789,2.1481823061123015
2.85,60.0,Không,Nhà mặt tiền,Giấy tờ hợp lệ,4.0,15.0,1,16.0249026,108.2137169, Bình Hòa 2,Khuê Trung,cẩm lệ,5.717296127067109,3.8532678442169193,3.766419272085646,1.0473189942805592,4.0943445622221,0.0,1.3862943611198906,2.70805020110221,1.7434959885732517,1.3489215789862614
2.8,90.0,Không,Nhà trong hẻm,Giấy tờ hợp lệ,5.0,18.0,2,16.0151267,108.2044735, Ông Ích Đường,Hòa Thọ Đông,cẩm lệ,7.181439370379863,4.987992051813158,4.661734955715325,1.0296194171811581,4.499809670330265,0.6931471805599453,1.6094379124341003,2.8903717578961645,1.9714998323810624,1.607033434354844
3.15,110.0,Không,Nhà trong hẻm,Giấy tờ hợp lệ,9.0,12.0,1,16.0138538,108.1958513, Cách Mạng Tháng 8,Hòa Thọ Đông,cẩm lệ,7.905836607919737,5.343723328342092,4.853666284353989,1.1474024528375417,4.700480365792417,0.0,2.1972245773362196,2.4849066497880004,2.0676012978154645,1.6759226625030326
6.7,110.0,Không,Nhà mặt tiền,Giấy tờ hợp lệ,5.0,22.0,3,16.0063777,108.2078822, Phạm Hùng,Hòa Xuân,cẩm lệ,7.742359078689389,5.910516326332974,5.653504684737835,1.9021075263969205,4.700480365792417,1.0986122886681098,1.6094379124341003,3.091042453358316,2.0467064316907835,1.776733192463675
2.25,78.0,Không,Nhà trong hẻm,Giấy tờ hợp lệ,6.0,13.0,2,16.0154645,108.1976131, Phạm Viết Chánh,Hòa Thọ Đông,cẩm lệ,7.64656835515986,5.116476229020093,4.651864122132446,0.8109302162163288,4.356708826689592,0.6931471805599453,1.791759469228055,2.5649493574615367,2.034256966171023,1.6324659655884284
2.2,76.0,Không,Nhà trong hẻm,Giấy tờ hợp lệ,4.6,16.0,2,16.0151267,108.2044735, Ông Ích Đường,Hòa Thọ Đông,cẩm lệ,7.181439370379863,4.987992051813158,4.661734955715325,0.7884573603642703,4.330733340286331,0.6931471805599453,1.5260563034950492,2.772588722239781,1.9714998323810624,1.607033434354844
2.1,84.0,Không,Nhà trong hẻm,Giấy tờ hợp lệ,4.0,21.0,2,16.0241244,108.2171347, Cách Mạng Tháng 8,Khuê Trung,cẩm lệ,5.562607019073472,3.976662923297844,3.9759391368219577,0.7419373447293773,4.430816798843313,0.6931471805599453,1.3862943611198906,3.044522437723423,1.7160668866912792,1.3804430061079553
2.25,100.0,Không,Nhà trong hẻm,Giấy tờ hợp lệ,5.0,20.0,1,16.0205599,108.2060848, Bùi Xương Trạch,Khuê Trung,cẩm lệ,6.614557995152835,4.368088406493078,4.072956692338711,0.8109302162163288,4.605170185988092,0.0,1.6094379124341003,2.995732273553991,1.8892729767634588,1.474325477819535
1.5,66.0,Không,Nhà trong hẻm,Giấy tờ hợp lệ,4.0,16.5,1,16.0137464,108.2044932, Bình Thái 1,Hòa Thọ Đông,cẩm lệ,7.297900694485221,5.138657187986884,4.814435111087388,0.4054651081081644,4.189654742026425,0.0,1.3862943611198906,2.803360380906535,1.9875867306984951,1.6367917978626392
2.25,80.0,Không,Nhà trong hẻm,Giấy tờ hợp lệ,6.0,13.5,2,16.0172805,108.201628, Triệu Quốc Đạt,Hòa Thọ Đông,cẩm lệ,7.204491664628993,4.811174414109968,4.420774678185881,0.8109302162163288,4.382026634673881,0.6931471805599453,1.791759469228055,2.6026896854443837,1.9747046738228693,1.5709412152528623
2.05,56.0,Không,Nhà trong hẻm,Giấy tờ hợp lệ,7.0,8.0,2,16.0241244,108.2171347, Cách Mạng Tháng 8,Khuê Trung,cẩm lệ,5.562607019073472,3.976662923297844,3.9759391368219577,0.7178397931503168,4.02535169073515,0.6931471805599453,1.9459101490553132,2.0794415416798357,1.7160668866912792,1.3804430061079553
15.0,6.0,Không,Nhà mặt tiền,Không có,5.5,12.0,5,16.0604012,108.2170183, Hoàng Diệu,Nam Dương,hải châu,3.304327533355402,0.5810390622936686,1.5756969397271998,2.70805020110221,1.791759469228055,1.6094379124341003,1.7047480922384253,2.4849066497880004,1.1952329831169324,-0.5429372915267963
7.2,78.0,Không,Nhà mặt tiền,Không có,5.5,14.5,3,16.0347762,108.217907, Lê Thị Hồng Gấm,Hòa Cường Nam,hải châu,4.600617116849255,2.8346870991995337,2.971038187331273,1.9740810260220096,4.356708826689592,1.0986122886681098,1.7047480922384253,2.6741486494265287,1.5261904503337544,1.041931560435705
7.3,66.0,Không,Nhà mặt tiền,Không có,4.1,16.0,3,16.066751,108.2418371, Phước Mỹ 3,Phước Mỹ,sơn trà,0.6448893017958006,3.3247017190452794,4.322154753588128,1.9878743481543455,4.189654742026425,1.0986122886681098,1.410986973710262,2.772588722239781,-0.438676602038431,1.2013799615259535
6.5,68.0,Không,Nhà mặt tiền,Không có,5.0,13.5,3,16.0482538,108.2223433, Tống Phước Phổ,Hòa Cường Bắc,hải châu,3.265485097425974,1.7047286767759406,2.327590026306745,1.8718021769015913,4.219507705176107,1.0986122886681098,1.6094379124341003,2.6026896854443837,1.1834083267078321,0.5334059642165914
16.5,125.0,Không,Nhà mặt tiền,Không có,5.0,25.0,4,16.0407896,108.2111494, Nguyễn Hữu Thọ,Hòa Cường Bắc,hải châu,4.72051048174597,2.0894873395519493,2.0319746507239835,2.803360380906535,4.8283137373023015,1.3862943611198906,1.6094379124341003,3.2188758248682006,1.5519169466616414,0.7369187438072897
14.2,125.0,Không,Nhà mặt tiền,Không có,5.0,24.0,4,16.0577109,108.2071212, Nguyễn Tri Phương,Thạc Gián,thanh khê,4.398151517273825,0.5298745855721378,0.4799047847964753,2.653241964607215,4.8283137373023015,1.3862943611198906,1.6094379124341003,3.1780538303479458,1.4811843429429137,-0.6351149314334674
3.995,70.0,Không,Nhà mặt tiền,Không có,5.0,14.0,2,16.0732069,108.1728305, Dương Bích Liên,Hòa Minh,liên chiểu,8.047455678927445,4.41483061291276,3.649883980986675,1.385043579218238,4.248495242049359,0.6931471805599453,1.6094379124341003,2.6390573296152584,2.0853559767419783,1.4849694670487437
16.0,100.0,Không,Nhà mặt tiền,Không có,5.0,20.0,5,16.0376383,108.2228608, Phan Đăng Lưu,Hòa Cường Bắc,hải châu,4.009143855461245,2.717152216121649,3.060147884876638,2.772588722239781,4.605170185988092,1.6094379124341003,1.6094379124341003,2.995732273553991,1.3885777161448585,0.9995843524751127
100.0,450.0,Không,Nhà mặt tiền,Không có,15.0,30.0,14,16.0524115,108.2090289, Nguyễn Hữu Thọ,Hòa Thuận Tây,hải châu,4.346895782169306,0.8500454561579067,0.8639978075900642,4.605170185988092,6.1092475827643655,2.6390573296152584,2.70805020110221,3.4011973816621555,1.4694619770630142,-0.1624654530948318
9.0,11.0,Không,Nhà mặt tiền,Không có,5.0,22.0,3,16.0327176,108.2293459, Nguyễn Lộ Trạch,Hòa Cường Nam,hải châu,4.058209094802376,3.532976894134707,3.937227333857682,2.1972245773362196,2.3978952727983707,1.0986122886681098,1.6094379124341003,3.091042453358316,1.400741766641571,1.2621408283428022
13.0,90.0,Không,Nhà mặt tiền,Không có,4.5,20.0,6,16.072439,108.1962625, Nguyễn Tất Thành,Xuân Hà,thanh khê,5.550718722118796,2.1692806174809904,1.818411033811475,2.5649493574615367,4.499809670330265,1.791759469228055,1.5040773967762742,2.995732273553991,1.7139274188548732,0.7743955999083204
12.0,135.0,Không,Nhà mặt tiền,Không có,5.37,25.0,2,16.0382864,108.2213353, Núi Thành,Hòa Cường Bắc,hải châu,4.066315876444203,2.583237451838292,2.89481433902592,2.4849066497880004,4.90527477843843,0.6931471805599453,1.6808279085207734,3.2188758248682006,1.402737399459733,0.9490434385909164
5.8,63.0,Không,Nhà trong hẻm,Không có,4.2,15.0,4,16.0602491,108.2136695, Nguyễn Văn Linh,Vĩnh Trung,thanh khê,3.6613011326956393,0.2263800987938418,1.2243334529593215,1.7578579175523736,4.143134726391533,1.3862943611198906,1.4350845252893227,2.70805020110221,1.2978185849743737,-1.4855398393708472
9.8,105.0,Không,Nhà trong hẻm,Giấy tờ hợp lệ,10.246950765959598,10.246950765959598,5,16.078156,108.2150772, Lý Tự Trọng,Thanh Bình,hải châu,3.771723411774994,2.0788740580823646,2.670660212424873,2.2823823856765264,4.653960350157523,1.6094379124341003,2.3269801750787615,2.3269801750787615,1.327532035405848,0.7318264289179865
4.09,55.0,Không,Nhà trong hẻm,Giấy tờ hợp lệ,5.0,11.0,1,16.0596195,108.2093288, Nguyễn Văn Linh,Thạc Gián,thanh khê,4.13094936696028,0.2475364908161718,0.7609430218852311,1.4085449700547104,4.007333185232471,0.0,1.6094379124341003,2.3978952727983707,1.4185072514913588,-1.3961972702001546
4.5,55.0,Không,Nhà trong hẻm,Không có,5.0,11.0,2,16.0554131,108.1876616, Trần Xuân Lê,An Khê,thanh khê,6.493299841923051,2.6087538712694984,1.6178394636779412,1.5040773967762742,4.007333185232471,0.6931471805599453,1.6094379124341003,2.3978952727983707,1.8707708517182526,0.9588726633638978
5.3,125.0,Không,Nhà trong hẻm,Không có,7.8,16.0,1,16.0196547,108.2034422, Ông Ích Đường,Khuê Trung,cẩm lệ,6.880027276664343,4.513698798212869,4.157485356279752,1.667706820558076,4.8283137373023015,0.0,2.0541237336955462,2.772588722239781,1.9286226165688385,1.507116950031012
8.3,8.0,Không,Nhà trong hẻm,Không có,4.5,18.4,3,16.0648993,108.2240258, Thái Phiên,Phước Ninh,hải châu,2.516938226816495,1.4461440412470303,2.438565416272937,2.1162555148025524,2.0794415416798357,1.0986122886681098,1.5040773967762742,2.91235066461494,0.9230431734668268,0.36890073236262694
6.5,106.0,Không,Nhà trong hẻm,Không có,7.0,15.0,1,16.0522316,108.2404204, An Thượng 24,Mỹ An,ngũ hành sơn,1.5949883063973962,3.1874459659710994,4.077481194437008,1.8718021769015913,4.663439094112067,0.0,1.9459101490553132,2.70805020110221,0.4668664047976422,1.1592199584886562
7.1,143.0,Không,Nhà trong hẻm,Không có,8.0,18.0,2,16.0757672,108.2135372, Ông Ích Khiêm,Thanh Bình,hải châu,3.8330059149601023,1.7932792754357365,2.3594096584607738,1.9600947840472698,4.962844630259907,0.6931471805599453,2.0794415416798357,2.8903717578961645,1.343649329564486,0.5840459412421808
7.2,68.0,Không,Nhà mặt tiền,Giấy tờ hợp lệ,4.5,15.3,4,16.078156,108.2150772, Lý Tự Trọng,Thanh Bình,hải châu,3.771723411774994,2.0788740580823646,2.670660212424873,1.9740810260220096,4.219507705176107,1.3862943611198906,1.5040773967762742,2.72785282839839,1.327532035405848,0.7318264289179865
16.0,170.0,Không,Nhà mặt tiền,Không có,6.0,20.0,2,16.0409045,108.216236, Ỷ Lan Nguyên Phi,Hòa Cường Bắc,hải châu,4.274552178367,2.1335238989701337,2.316772417097155,2.772588722239781,5.135798437050262,0.6931471805599453,1.791759469228055,2.995732273553991,1.4526793433033196,0.7577750253502904
24.45,123.0,Không,Nhà mặt tiền,Không có,7.1,18.0,2,16.0493796,108.2207225, Núi Thành,Hòa Thuận Đông,hải châu,3.3445135163991093,1.4966070293743554,2.117951390785364,3.196630215920881,4.812184355372417,0.6931471805599453,1.9600947840472698,2.8903717578961645,1.2073212469492653,0.4032005655489583
3.45,56.0,Không,Nhà mặt tiền,Không có,4.0,14.0,2,16.0311397,108.2273853, Hóa Sơn 2,Hòa Cường Nam,hải châu,4.313258881985078,3.5781123240472743,3.914724933327211,1.2383742310432684,4.02535169073515,0.6931471805599453,1.3862943611198906,2.6390573296152584,1.4616937395103313,1.27483537756395
23.5,155.0,Không,Nhà mặt tiền,Giấy tờ hợp lệ,6.0,24.0,1,16.062005,108.2217525, Cô Giang,Phước Ninh,hải châu,2.778604223800476,1.1124147320007802,2.109965120504508,3.1570004211501135,5.043425116919247,0.0,1.791759469228055,3.1780538303479458,1.0219487238496852,0.10653308672829294
15.7,80.0,Không,Nhà mặt tiền,Giấy tờ hợp lệ,5.0,16.0,3,16.0486433,108.2485294, An Thượng 1,Mỹ An,ngũ hành sơn,1.8009277618289568,4.131352317892098,4.998604841736438,2.7536607123542622,4.382026634673881,1.0986122886681098,1.6094379124341003,2.772588722239781,0.588301955355496,1.4186047911231725
14.7,95.0,Không,Nhà mặt tiền,Không có,7.5,12.7,4,16.0792623,108.2219154, Đặng Tử Kính,Thạch Thang,hải châu,3.170417514982586,2.431241854470928,3.19271817031909,2.6878474937846906,4.553876891600541,1.3862943611198906,2.0149030205422647,2.5416019934645457,1.1538632874128256,0.8884021780328591
17.0,121.0,Không,Nhà mặt tiền,Không có,5.0,24.2,3,16.0756928,108.2429073, Hồ Nghinh,Phước Mỹ,sơn trà,1.2944613220717778,3.786414242544354,4.766565448596511,2.833213344056216,4.795790545596741,1.0986122886681098,1.6094379124341003,3.186352633162641,0.2580946411008758,1.331419461103026
6.1,34.0,Không,Nhà mặt tiền,Không có,9.0,286.0,2,16.0137464,108.2044932, Bình Thái 1,Hòa Thọ Đông,cẩm lệ,7.297900694485221,5.138657187986884,4.814435111087388,1.8082887711792655,3.5263605246161616,0.6931471805599453,2.1972245773362196,5.655991810819852,1.9875867306984951,1.6367917978626392
7.65,90.0,Không,Nhà mặt tiền,Không có,4.5,20.0,1,16.0409045,108.216236, Ỷ Lan Nguyên Phi,Hòa Cường Bắc,hải châu,4.274552178367,2.1335238989701337,2.316772417097155,2.0347056478384444,4.499809670330265,0.0,1.5040773967762742,2.995732273553991,1.4526793433033196,0.7577750253502904
31.0,78.0,Không,Nhà mặt tiền,Giấy tờ hợp lệ,10.0,29.0,3,16.0577109,108.2071212, Nguyễn Tri Phương,Thạc Gián,thanh khê,4.398151517273825,0.5298745855721378,0.4799047847964753,3.4339872044851463,4.356708826689592,1.0986122886681098,2.302585092994046,3.367295829986474,1.4811843429429137,-0.6351149314334674
31.0,78.0,Không,Nhà mặt tiền,Không có,9.6,29.0,3,16.0577109,108.2071212, Nguyễn Tri Phương,Thạc Gián,thanh khê,4.398151517273825,0.5298745855721378,0.4799047847964753,3.4339872044851463,4.356708826689592,1.0986122886681098,2.2617630984737906,3.367295829986474,1.4811843429429137,-0.6351149314334674
24.0,190.0,Không,Nhà mặt tiền,Không có,10.0,19.0,2,16.0320034,108.2149433, Xô Viết Nghệ Tĩnh,Hòa Cường Nam,hải châu,5.041569091408144,3.081417486238519,3.0840291537183595,3.1780538303479458,5.247024072160486,0.6931471805599453,2.302585092994046,2.9444389791664403,1.6177173612912235,1.1253897139201634
8.0,100.0,Không,Nhà mặt tiền,Không có,5.0,20.0,4,16.0211542,108.2065983, Hà Tông Quyền,Khuê Trung,cẩm lệ,6.528920245396716,4.295695938128101,4.0128531176394535,2.0794415416798357,4.605170185988092,1.3862943611198906,1.6094379124341003,2.995732273553991,1.876241576690573,1.4576135767985474
6.8,81.0,Không,Nhà mặt tiền,Không có,4.5,18.0,3,16.0379106,108.2149809, Nguyễn Phẩm,Hòa Cường Bắc,hải châu,4.588953251242313,2.433784662982104,2.510240200227813,1.916922612182061,4.394449154672439,1.0986122886681098,1.5040773967762742,2.8903717578961645,1.5236519482268593,0.8894475202251807
14.5,106.0,Không,Nhà mặt tiền,Không có,6.2,17.0,3,16.0382864,108.2213353, Núi Thành,Hòa Cường Bắc,hải châu,4.066315876444203,2.583237451838292,2.89481433902592,2.6741486494265287,4.663439094112067,1.0986122886681098,1.824549292051046,2.833213344056216,1.402737399459733,0.9490434385909164
13.0,90.0,Không,Nhà mặt tiền,Không có,5.0,18.0,3,16.0500842,108.2170537, Lê Đình Thám,Hòa Thuận Đông,hải châu,3.6513084003744862,1.2081348459811625,1.7301866778981936,2.5649493574615367,4.499809670330265,1.0986122886681098,1.6094379124341003,2.8903717578961645,1.2950855692168888,0.1890777207505908
10.5,174.0,Không,Nhà mặt tiền,Không có,9.5,20.0,3,16.0780214,108.1466968, Phạm Văn Tráng,Hòa Khánh Bắc,liên chiểu,10.88816723123961,7.239734826625399,6.415809160926546,2.3513752571634776,5.159055299214529,1.0986122886681098,2.2512917986064953,2.995732273553991,2.387676624456012,1.979584579570158
9.5,9.0,Không,Nhà mặt tiền,Không có,11.0,19.0,1,16.0608503,108.1882335, Cù Chính Lan,Hòa Khê,thanh khê,6.36249508351294,2.508154722107072,1.5957250726212269,2.2512917986064953,2.1972245773362196,0.0,2.3978952727983707,2.9444389791664403,1.8504206091475315,0.9195473122980883
22.3,55.0,Không,Nhà mặt tiền,Không có,12.75,20.0,4,16.0418324,108.2478355, Trần Văn Dư,Mỹ An,ngũ hành sơn,2.551740469057354,4.34678982241341,5.124626319899286,3.104586678466073,4.007333185232471,1.3862943611198906,2.545531271604435,2.995732273553991,0.9367756632332056,1.4694376008063328
11.0,198.0,Không,Nhà mặt tiền,Không có,11.0,19.0,3,16.0172054,108.2084021, Phan Văn Trị,Khuê Trung,cẩm lệ,6.737453259158979,4.711399097584559,4.470048515679327,2.3978952727983707,5.288267030694535,1.0986122886681098,2.3978952727983707,2.9444389791664403,1.9076819987949445,1.5499849122376488
13.0,84.0,Không,Nhà mặt tiền,Không có,4.5,19.0,3,16.0572971,108.2189031, Phan Châu Trinh,Phước Ninh,hải châu,3.178206343347473,0.8200167881529893,1.7375190636934414,2.5649493574615367,4.430816798843313,1.0986122886681098,1.5040773967762742,2.9444389791664403,1.1563169946875143,-0.19843046557611058
22.1,7.0,Không,Nhà mặt tiền,Không có,9.0,23.0,2,16.0490814,108.2194306, Duy Tân,Hòa Thuận Đông,hải châu,3.480357239690016,1.4375325654049007,2.0072219405627982,3.095577608523707,1.9459101490553132,0.6931471805599453,2.1972245773362196,3.1354942159291497,1.2471349436010484,0.3629281476274796
4.9,68.0,Không,Nhà mặt tiền,Giấy tờ hợp lệ,4.5,15.0,2,16.0789946,108.2149183, Hải Hồ,Thanh Bình,hải châu,3.824309318250638,2.167457805734444,2.7433922900828707,1.589235205116581,4.219507705176107,0.6931471805599453,1.5040773967762742,2.70805020110221,1.341377880581713,0.7735549626938956
6.2,90.0,Không,Nhà mặt tiền,Không có,5.0,18.0,3,16.0585706,108.2054324, Nguyễn Văn Linh,Hòa Thuận Tây,hải châu,4.5604363210459615,0.6753726808198405,0.3317920992642868,1.824549292051046,4.499809670330265,1.0986122886681098,1.6094379124341003,2.8903717578961645,1.5174183033887345,-0.39249062073853125
5.3,100.0,Không,Nhà mặt tiền,Không có,5.0,20.0,1,16.0507294,108.1792194, Nguyễn Đình Tứ,Hòa An,cẩm lệ,7.477510679119202,3.607527805824854,2.6095606978485524,1.667706820558076,4.605170185988092,0.0,1.6094379124341003,2.995732273553991,2.0118999396880075,1.2830227194185415
13.7,31.0,Không,Nhà mặt tiền,Không có,8.5,27.0,1,16.0418324,108.2478355, Trần Văn Dư,Mỹ An,ngũ hành sơn,2.551740469057354,4.34678982241341,5.124626319899286,2.617395832834079,3.4339872044851463,0.0,2.1400661634962708,3.295836866004329,0.9367756632332056,1.4694376008063328
5.9,87.0,Không,Nhà mặt tiền,Không có,3.8,17.0,2,16.0674661,108.1932536, Thái Thị Bôi,Chính Gián,thanh khê,5.816508032438447,2.148548751079927,1.5167105211395546,1.7749523509116738,4.465908118654584,0.6931471805599453,1.33500106673234,2.833213344056216,1.7607000872482765,0.7647926147271348
14.0,98.0,Không,Nhà mặt tiền,Không có,5.1,17.0,3,16.077247,108.2196748, Lý Tự Trọng,Thạch Thang,hải châu,3.280930062097949,2.126937362188647,2.8679327567243256,2.6390573296152584,4.584967478670572,1.0986122886681098,1.62924053973028,2.833213344056216,1.188126937719452,0.7546830868839777
11.0,76.0,Không,Nhà mặt tiền,Không có,7.0,11.0,3,16.0810631,108.217488, Lương Ngọc Quyến,Thuận Phước,hải châu,3.680746407541048,2.4490498089336112,3.078691608961818,2.3978952727983707,4.330733340286331,1.0986122886681098,1.9459101490553132,2.3978952727983707,1.3031155597501485,0.8957001162416106
5.3,8.0,Không,Nhà mặt tiền,Không có,5.0,16.5,3,16.0378612,108.2145629, Ngô Thị Liễu,Hòa Cường Bắc,hải châu,4.626545701464605,2.4330419184745744,2.4917462112960544,1.667706820558076,2.0794415416798357,1.0986122886681098,1.6094379124341003,2.803360380906535,1.5318105208521726,0.8891422927834937
55.0,700.0,Không,Nhà mặt tiền,Không có,15.0,46.0,1,16.0579948,108.2437589, Tô Hiến Thành,Phước Mỹ,sơn trà,0.8640965818913763,3.4416108154783465,4.397996770568794,4.007333185232471,6.551080335043404,0.0,2.70805020110221,3.828641396489095,-0.14607073182901353,1.2359396220991319
7.2,126.0,Không,Nhà mặt tiền,Không có,5.0,25.0,3,16.0943145,108.2295944, Hồ Sĩ Tân,Nại Hiên Đông,sơn trà,3.7804953192579465,4.288439754330349,5.015352797795058,1.9740810260220096,4.836281906951478,1.0986122886681098,1.6094379124341003,3.2188758248682006,1.329855037887646,1.4559229731580683
7.0,50.0,Không,Nhà mặt tiền,Không có,4.0,13.0,3,16.0631819,108.1848702, Huỳnh Ngọc Huệ,An Khê,thanh khê,6.709270586723101,2.890895199502064,2.01527528262713,1.9459101490553132,3.912023005428146,1.0986122886681098,1.3862943611198906,2.5649493574615367,1.9034902396683362,1.061566211772527
69.0,404.0,Không,Nhà mặt tiền,Không có,20.0,20.0,2,16.0656447,108.2017156, Điện Biên Phủ,Chính Gián,thanh khê,4.904825881595817,1.25131956440354,0.938080530690646,4.23410650459726,6.0014148779611505,0.6931471805599453,2.995732273553991,2.995732273553991,1.5902195942416493,0.2241986460288021
14.0,77.0,Không,Nhà mặt tiền,Không có,4.26,18.2,4,16.0572971,108.2189031, Phan Châu Trinh,Phước Ninh,hải châu,3.178206343347473,0.8200167881529893,1.7375190636934414,2.6390573296152584,4.343805421853684,1.3862943611198906,1.449269160281279,2.9014215940827497,1.1563169946875143,-0.19843046557611058
15.0,118.0,Không,Nhà mặt tiền,Không có,6.0,16.0,1,16.0784291,108.2194114, Lê Lợi,Thạch Thang,hải châu,3.3627667252479254,2.236583708847542,2.953000530041072,2.70805020110221,4.770684624465665,0.0,1.791759469228055,2.772588722239781,1.2127640652758223,0.8049495716935973
6.5,74.0,Không,Nhà mặt tiền,Không có,5.86,15.0,4,16.0834178,108.2180009, Ngô Chi Lan,Thuận Phước,hải châu,3.768069609815434,2.7150264062480303,3.33143385726721,1.8718021769015913,4.30406509320417,1.3862943611198906,1.7681496035889213,2.70805020110221,1.3265628304860004,0.9988016793968073
6.5,125.0,Không,Nhà mặt tiền,Không có,5.0,25.0,2,16.0899243,108.2356287, Khúc Hạo,Nại Hiên Đông,sơn trà,3.049734169809512,4.218831609521078,5.053577315996597,1.8718021769015913,4.8283137373023015,0.6931471805599453,1.6094379124341003,3.2188758248682006,1.1150544293813858,1.4395582199306711
12.0,69.0,Không,Nhà mặt tiền,Không có,4.0,18.0,1,16.0679602,108.2175171, Hùng Vương,Hải Châu II,hải châu,3.2312515821180057,1.112513799414772,1.9845936689204056,2.4849066497880004,4.23410650459726,0.0,1.3862943611198906,2.8903717578961645,1.1728695489048129,0.10662213894966405
17.0,170.0,Không,Nhà mặt tiền,Không có,5.0,34.0,5,16.0245072,108.2091787, Nguyễn Hữu Thọ,Khuê Trung,cẩm lệ,6.068675813813078,3.89953512871535,3.686178641284242,2.833213344056216,5.135798437050262,1.6094379124341003,1.6094379124341003,3.5263605246161616,1.8031404286883341,1.3608573482656876
8.9,9.0,Không,Nhà mặt tiền,Không có,4.5,20.0,1,16.0353736,108.2143518, Huỳnh Tấn Phát,Hòa Cường Bắc,hải châu,4.82571608044144,2.703751123259102,2.721549913201162,2.186051276738094,2.1972245773362196,0.0,1.5040773967762742,2.995732273553991,1.5739591342333918,0.994640113729928
7.45,70.0,Không,Nhà mặt tiền,Không có,5.0,14.0,3,16.0449981,108.2167919, Nguyễn Sơn Hà,Hòa Cường Bắc,hải châu,3.959417285308429,1.7141235280933038,2.0281595984873984,2.0082140323914683,4.248495242049359,1.0986122886681098,1.6094379124341003,2.6390573296152584,1.376096864264101,0.5389018876447705
17.0,77.0,Không,Nhà mặt tiền,Không có,15.0,18.0,1,16.0356237,108.2104035, Lý Nhân Tông,Khuê Trung,cẩm lệ,5.127151981943601,2.663774177670541,2.528947566180554,2.833213344056216,4.343805421853684,0.0,2.70805020110221,2.8903717578961645,1.6345503358074172,0.979743980943432
14.5,10.0,Không,Nhà mặt tiền,Không có,6.0,17.0,6,16.0364519,108.246453, Khuê Mỹ Đông 15,Khuê Mỹ,ngũ hành sơn,3.149140248448588,4.52497282112385,5.218808711059363,2.6741486494265287,2.302585092994046,1.791759469228055,1.791759469228055,2.833213344056216,1.1471294785830115,1.5096115707523814
39.0,180.0,Không,Nhà mặt tiền,Không có,9.0,20.0,10,16.0555583,108.2458319, An Thượng 26,Mỹ An,ngũ hành sơn,1.0488698820230016,3.686606765375783,4.622649331913182,3.6635616461296463,5.19295685089021,2.302585092994046,2.1972245773362196,2.995732273553991,0.04771328170435669,1.304706459204326
10.0,105.0,Không,Nhà mặt tiền,Không có,5.0,25.0,3,16.0421634,108.2109722, Đuờng Vũ Hữu,Hòa Cường Bắc,hải châu,4.652248316245228,1.9381241680788883,1.888182653617646,2.302585092994046,4.653960350157523,1.0986122886681098,1.6094379124341003,3.2188758248682006,1.5373506116164577,0.6617205816323105
10.0,105.0,Không,Nhà mặt tiền,Giấy tờ hợp lệ,5.0,21.0,3,16.0421634,108.2109722, Đuờng Vũ Hữu,Hòa Cường Bắc,hải châu,4.652248316245228,1.9381241680788883,1.888182653617646,2.302585092994046,4.653960350157523,1.0986122886681098,1.6094379124341003,3.044522437723423,1.5373506116164577,0.6617205816323105
9.0,70.0,Không,Nhà mặt tiền,Không có,5.0,14.0,3,16.0253941,108.2219221, Lê Thanh Nghị,Hòa Cường Nam,hải châu,5.15968931167554,3.948814826453508,4.080164080824873,2.1972245773362196,4.248495242049359,1.0986122886681098,1.6094379124341003,2.6390573296152584,1.6408763667651283,1.373415489955022
30.0,125.0,Không,Nhà mặt tiền,Không có,5.0,25.0,6,16.0728578,108.2314403, Phạm Văn Đồng,An Hải Bắc,sơn trà,1.935980386261936,2.5727102848008987,3.532021832124128,3.4011973816621555,4.8283137373023015,1.791759469228055,1.6094379124341003,3.2188758248682006,0.6606138577400161,0.9449599287480982
6.0,75.0,Không,Nhà mặt tiền,Không có,5.0,15.0,2,16.0753885,108.2405825, Trần Thanh Mại,An Hải Bắc,sơn trà,1.3802865231515462,3.551928548907985,4.528059934009785,1.791759469228055,4.31748811353631,0.6931471805599453,1.6094379124341003,2.70805020110221,0.3222911030900629,1.267490709192235
18.0,90.0,Không,Nhà mặt tiền,Không có,5.0,18.0,2,16.0484004,108.2475511, An Thượng 2,Mỹ An,ngũ hành sơn,1.8247465342723463,4.039669643640456,4.901147063214384,2.8903717578961645,4.499809670330265,0.6931471805599453,1.6094379124341003,2.8903717578961645,0.601441092058773,1.3961629172534729
22.0,144.0,Không,Nhà mặt tiền,Không có,9.0,16.0,2,16.0427332,108.2428481, Bà Huyện Thanh Quan,Mỹ An,ngũ hành sơn,2.50293418993956,3.829086990259891,4.588877644417808,3.091042453358316,4.969813299576001,0.6931471805599453,2.1972245773362196,2.772588722239781,0.9174637196307758,1.3426263910304799
20.5,8.0,Không,Nhà mặt tiền,Không có,12.0,18.0,2,16.0456361,108.2469406, Mỹ Đa Đông 12,Mỹ An,ngũ hành sơn,2.1316348375627765,4.083821479355205,4.9080305941606985,3.0204248861443626,2.0794415416798357,0.6931471805599453,2.4849066497880004,2.8903717578961645,0.7568892146934915,1.407033187142117
15.0,10.0,Không,Nhà mặt tiền,Không có,5.0,20.5,2,16.0483631,108.2476662, Ngô Thì Sĩ,Mỹ An,ngũ hành sơn,1.8289173674794288,4.0526589639019885,4.914039350201195,2.70805020110221,2.302585092994046,0.6931471805599453,1.6094379124341003,3.0204248861443626,0.603724189317281,1.3993731999908774
79.0,169.0,Không,Nhà mặt tiền,Không có,6.7,24.0,2,16.0693686,108.2250334, Bạch Đằng,Hải Châu I,hải châu,2.459543293465843,1.7905561800065912,2.745247382688979,4.3694478524670215,5.1298987149230735,0.6931471805599453,1.9021075263969205,3.1780538303479458,0.8999756796459429,0.5825262866782088
9.5,50.0,Không,Nhà mặt tiền,Không có,4.5,11.0,5,16.0524115,108.2090289, Nguyễn Hữu Thọ,Hòa Thuận Tây,hải châu,4.346895782169306,0.8500454561579067,0.8639978075900642,2.2512917986064953,3.912023005428146,1.6094379124341003,1.5040773967762742,2.3978952727983707,1.4694619770630142,-0.1624654530948318
17.0,97.0,Không,Nhà mặt tiền,Không có,4.0,24.0,3,16.0655695,108.2235849, Trần Phú,Phước Ninh,hải châu,2.56521165124785,1.4352441558965667,2.4217233289158098,2.833213344056216,4.574710978503383,1.0986122886681098,1.3862943611198906,3.1780538303479458,0.9420409903249229,0.36133497822075183
15.0,86.85547250981791,Không,Nhà mặt tiền,Không có,10.0,20.0,3,16.0278331,108.2456894, Trần Hoành,Khuê Mỹ,ngũ hành sơn,4.10552862853,5.067891080145078,5.636546127978336,2.70805020110221,4.464245501753445,1.0986122886681098,2.302585092994046,2.995732273553991,1.412334511356375,1.622924770543862
9.0,14.0,Không,Nhà mặt tiền,Không có,5.93,23.0,1,16.0572491,108.2429078, Nguyễn Duy Hiệu,An Hải Đông,sơn trà,0.9805890016436823,3.356247217313551,4.306093963796193,2.1972245773362196,2.6390573296152584,0.0,1.780024213009634,3.1354942159291497,-0.01960186577356689,1.210823450168862
7.5,90.0,Không,Nhà mặt tiền,Không có,5.0,18.0,3,16.042319,108.2140318, Hoàng Thúc Trâm,Hòa Cường Bắc,hải châu,4.37052667335598,1.936544704351804,2.0487564401690914,2.0149030205422647,4.499809670330265,1.0986122886681098,1.6094379124341003,2.8903717578961645,1.4748835220642804,0.6609053048349518
25.0,313.0,Không,Nhà mặt tiền,Không có,9.6,23.0,2,16.0427332,108.2428481, Bà Huyện Thanh Quan,Mỹ An,ngũ hành sơn,2.50293418993956,3.829086990259891,4.588877644417808,3.2188758248682006,5.746203190540153,0.6931471805599453,2.2617630984737906,3.1354942159291497,0.9174637196307758,1.3426263910304799
19.5,137.0,Không,Nhà mặt tiền,Không có,7.0,23.0,3,16.0382864,108.2213353, Núi Thành,Hòa Cường Bắc,hải châu,4.066315876444203,2.583237451838292,2.89481433902592,2.970414465569701,4.919980925828125,1.0986122886681098,1.9459101490553132,3.1354942159291497,1.402737399459733,0.9490434385909164
35.0,126.0,Không,Nhà mặt tiền,Không có,7.0,18.0,7,16.0715117,108.239114, Morrison,An Hải Bắc,sơn trà,1.162491166030919,3.21856339831676,4.208574901738493,3.5553480614894135,4.836281906951478,1.9459101490553132,1.9459101490553132,2.8903717578961645,0.15056525933731293,1.168935110410908
5.9,100.0,Không,Nhà mặt tiền,Không có,5.0,20.0,3,16.0726972,108.1559694, Phú Thạnh 4,Hòa Minh,liên chiểu,9.836776839911536,6.12894362712628,5.281943083525337,1.7749523509116738,4.605170185988092,1.0986122886681098,1.6094379124341003,2.995732273553991,2.2861281004861174,1.81302240673349
28.0,151.0,Không,Nhà mặt tiền,Không có,6.5,24.0,8,16.0493796,108.2207225, Núi Thành,Hòa Thuận Đông,hải châu,3.3445135163991093,1.4966070293743554,2.117951390785364,3.332204510175204,5.017279836814924,2.0794415416798357,1.8718021769015913,3.1780538303479458,1.2073212469492653,0.4032005655489583
55.0,150.0,Không,Nhà mặt tiền,Giấy tờ hợp lệ,7.0,24.0,2,16.0602491,108.2136695, Nguyễn Văn Linh,Nam Dương,hải châu,3.6613011326956393,0.2263800987938418,1.2243334529593215,4.007333185232471,5.0106352940962555,0.6931471805599453,1.9459101490553132,3.1780538303479458,1.2978185849743737,-1.4855398393708472
20.0,90.0,Không,Nhà mặt tiền,Không có,5.0,18.0,4,16.0490211,108.2463704, An Thượng 4,Mỹ An,ngũ hành sơn,1.760580336503864,3.89838179998538,4.763839516255708,2.995732273553991,4.499809670330265,1.3862943611198906,1.6094379124341003,2.8903717578961645,0.5656434913488013,1.3605615439505288
6.25,74.0,Không,Nhà mặt tiền,Không có,4.5,15.0,2,16.0336171,108.2117836, Bàu Tràm 1,Khuê Trung,cẩm lệ,5.159766855482675,2.88256542502206,2.7879148199885933,1.8325814637483102,4.30406509320417,0.6931471805599453,1.5040773967762742,2.70805020110221,1.6408913954266937,1.0586806702225116
8.0,9.0,Không,Nhà mặt tiền,Không có,5.38,17.29,1,16.0816887,108.2129154, Thanh Hải,Thanh Bình,hải châu,4.145718839095633,2.4408510205548475,2.9216352990440764,2.0794415416798357,2.1972245773362196,0.0,1.682688374173693,2.850128299695199,1.4220761967347026,0.8923467574118044
7.3,108.0,Không,Nhà mặt tiền,Không có,4.5,15.25,4,16.0817169,108.2140167, Thanh Long,Thanh Bình,hải châu,4.0421764395950905,2.4533603413311824,2.9707265074799136,1.9878743481543455,4.68213122712422,1.3862943611198906,1.5040773967762742,2.7245795030534206,1.3967832695861475,0.8974586527068554
7.5,96.0,Không,Nhà mặt tiền,Không có,5.0,19.3,3,16.0340279,108.2086379, Phạm Phú Tiết,Khuê Trung,cẩm lệ,5.3852071799055325,2.855217323985112,2.6445224011386603,2.0149030205422647,4.564348191467836,1.0986122886681098,1.6094379124341003,2.9601050959108397,1.6836557833883268,1.0491479606961096
7.3,9.0,Không,Nhà mặt tiền,Không có,7.8,12.0,4,16.0843185,108.2200094, Mai Lão Bạng,Thuận Phước,hải châu,3.647511546857605,2.8712146978225,3.526720668868393,1.9878743481543455,2.1972245773362196,1.3862943611198906,2.0541237336955462,2.4849066497880004,1.2940451671007058,1.0547351798902966
5.7,70.0,Không,Nhà mặt tiền,Không có,5.0,14.0,3,16.0327697,108.2155964, Huy Cận,Hòa Cường Nam,hải châu,4.931994610337267,3.0062339205199984,3.038708960872851,1.7404661748405046,4.248495242049359,1.0986122886681098,1.6094379124341003,2.6390573296152584,1.5957434925069482,1.1006881061740537
13.0,74.0,Không,Nhà mặt tiền,Giấy tờ hợp lệ,8.602325267042627,8.602325267042627,5,16.0515372,108.2430561, An Thượng 29,Mỹ An,ngũ hành sơn,1.5538599558396735,3.479760890847416,4.367490997046025,2.5649493574615367,4.30406509320417,1.6094379124341003,2.1520325466020847,2.1520325466020847,0.44074212937725044,1.2469635818991707
9.4,54.0,Không,Nhà mặt tiền,Không có,4.2,12.7,4,16.0796069,108.2199666, Nguyễn Chí Thanh,Thạch Thang,hải châu,3.370685433348425,2.379669687795836,3.0928069863666847,2.2407096892759584,3.9889840465642745,1.3862943611198906,1.4350845252893227,2.5416019934645457,1.215116116367775,0.8669616914112214
4.4,75.0,Không,Nhà mặt tiền,Không có,5.0,15.0,3,16.0271261,108.2227875, Đào Trí,Hòa Cường Nam,hải châu,4.948169450041347,3.793211843926909,3.965450992763016,1.4816045409242156,4.31748811353631,1.0986122886681098,1.6094379124341003,2.70805020110221,1.5990177001122758,1.3332131124329025
14.0,86.85547250981791,Không,Nhà mặt tiền,Không có,10.0,20.0,3,16.0297992,108.2407759, Lê Hữu Khánh,Khuê Mỹ,ngũ hành sơn,3.950192229226448,4.543451907274674,5.083083076951749,2.6390573296152584,4.464245501753445,1.0986122886681098,2.302585092994046,2.995732273553991,1.3737642433558461,1.513687055146143
8.0,75.0,Không,Nhà mặt tiền,Không có,5.0,15.0,5,16.0649797,108.198504, Bế Văn Đàn,Chính Gián,thanh khê,5.247773043648762,1.5237805374226177,0.9675237196321947,2.0794415416798357,4.31748811353631,1.6094379124341003,1.6094379124341003,2.70805020110221,1.6578038044506893,0.4211944425789698
8.0,9.0,Không,Nhà mặt tiền,Không có,5.38,17.29,2,16.0816887,108.2129154, Thanh Hải,Thanh Bình,hải châu,4.145718839095633,2.4408510205548475,2.9216352990440764,2.0794415416798357,2.1972245773362196,0.6931471805599453,1.682688374173693,2.850128299695199,1.4220761967347026,0.8923467574118044
7.0,90.0,Không,Nhà mặt tiền,Không có,5.0,18.0,1,16.0343498,108.2158375, Trần Đức Thảo,Hòa Cường Nam,hải châu,4.789185027057959,2.8371977984309087,2.8966014413504264,1.9459101490553132,4.499809670330265,0.0,1.6094379124341003,2.8903717578961645,1.5663602564583452,1.042816874380073
9.5,58.0,Không,Nhà mặt tiền,Không có,4.0,15.0,4,16.0581242,108.2096926, Phạm Văn Nghị,Thạc Gián,thanh khê,4.119270591716148,0.2694382393663154,0.7586021554367057,2.2512917986064953,4.060443010546419,1.3862943611198906,1.3862943611198906,2.70805020110221,1.4156761068422594,-1.3114160823678909
9.5,60.0,Không,Nhà mặt tiền,Giấy tờ hợp lệ,7.745966692414834,7.745966692414834,4,16.0581242,108.2096926, Phạm Văn Nghị,Thạc Gián,thanh khê,4.119270591716148,0.2694382393663154,0.7586021554367057,2.2512917986064953,4.0943445622221,1.3862943611198906,2.04717228111105,2.04717228111105,1.4156761068422594,-1.3114160823678909
15.0,58.0,Không,Nhà mặt tiền,Giấy tờ hợp lệ,4.7,12.5,4,16.0673648,108.2238819, Phạm Phú Thứ,Hải Châu I,hải châu,2.547082964386834,1.562431219233504,2.532721540916184,2.70805020110221,4.060443010546419,1.3862943611198906,1.547562508716013,2.5257286443082556,0.9349487688420974,0.446243081968967
28.0,99.0,Không,Nhà mặt tiền,Giấy tờ hợp lệ,9.9498743710662,9.9498743710662,7,16.0785524,108.2159741, Đống Đa,Thuận Phước,hải châu,3.701212010223355,2.140773490999176,2.757123206999029,3.332204510175204,4.59511985013459,1.9459101490553132,2.297559925067295,2.297559925067295,1.308660336341368,0.7611672081206097
5.5,58.0,Không,Nhà mặt tiền,Giấy tờ hợp lệ,4.0,15.0,3,16.0887725,108.2170944, Đinh Công Tráng,Thuận Phước,hải châu,4.195426592279652,3.273344487679751,3.817929625373816,1.7047480922384253,4.060443010546419,1.0986122886681098,1.3862943611198906,2.70805020110221,1.4339950253997176,1.1858122413339307
6.8,90.0,Không,Nhà mặt tiền,Không có,5.0,18.0,1,16.0343498,108.2158375, Trần Đức Thảo,Hòa Cường Nam,hải châu,4.789185027057959,2.8371977984309087,2.8966014413504264,1.916922612182061,4.499809670330265,0.0,1.6094379124341003,2.8903717578961645,1.5663602564583452,1.042816874380073
10.5,81.0,Không,Nhà mặt tiền,Giấy tờ hợp lệ,9.0,9.0,3,16.0600634,108.2135488, Nguyễn Hoàng,Bình Hiên,hải châu,3.677019358396333,0.2087568387355273,1.206391277618806,2.3513752571634776,4.394449154672439,1.0986122886681098,2.1972245773362196,2.1972245773362196,1.3021024670309584,-1.566585155378071
4.7,74.0,Không,Nhà mặt tiền,Giấy tờ hợp lệ,4.5,16.5,3,16.033764,108.2131623, Chu Mạnh Trinh,Khuê Trung,cẩm lệ,5.04018331209715,2.8708848259674213,2.8279857644585062,1.547562508716013,4.30406509320417,1.0986122886681098,1.5040773967762742,2.803360380906535,1.6174424528696993,1.0546202839871257
16.0,10.0,Không,Nhà mặt tiền,Không có,6.0,17.0,5,16.0372528,108.2443479, Khuê Đông,Khuê Mỹ,ngũ hành sơn,3.0774488043116586,4.2895598545045415,4.977562375278097,2.772588722239781,2.302585092994046,1.6094379124341003,1.791759469228055,2.833213344056216,1.1241009434585418,1.4561841296587996
27.0,19.0,Không,Nhà mặt tiền,Giấy tờ hợp lệ,7.7,23.0,1,16.0796069,108.2199666, Nguyễn Chí Thanh,Thạch Thang,hải châu,3.370685433348425,2.379669687795836,3.0928069863666847,3.295836866004329,2.9444389791664403,0.0,2.0412203288596382,3.1354942159291497,1.215116116367775,0.8669616914112214
16.0,93.0,Không,Nhà mặt tiền,Giấy tờ hợp lệ,9.643650760992957,9.643650760992957,4,16.0656447,108.2017156, Điện Biên Phủ,Chính Gián,thanh khê,4.904825881595817,1.25131956440354,0.938080530690646,2.772588722239781,4.532599493153256,1.3862943611198906,2.266299746576628,2.266299746576628,1.5902195942416493,0.2241986460288021
7.7,90.0,Không,Nhà mặt tiền,Giấy tờ hợp lệ,9.486832980505138,9.486832980505138,3,16.0756001,108.241529, An Cư 5,Phước Mỹ,sơn trà,1.3488632814111037,3.651805609636921,4.629259334688505,2.0412203288596382,4.499809670330265,1.0986122886681098,2.2499048351651325,2.2499048351651325,0.2992622239880731,1.2952217328486002
11.5,170.0,Không,Nhà mặt tiền,Giấy tờ hợp lệ,13.038404810405298,13.038404810405298,1,16.0567276,108.244559, Thạch Lam,Phước Mỹ,sơn trà,0.9582388152364848,3.53723882121221,4.48311080962013,2.4423470353692043,5.135798437050262,0.0,2.567899218525131,2.567899218525131,-0.04265824686213566,1.2633464287842338
18.0,9.0,Không,Nhà mặt tiền,Không có,4.6,20.0,4,16.0756155,108.2177987, Nguyễn Thị Minh Khai,Thạch Thang,hải châu,3.3972169537976726,1.8839272329724108,2.601334464287596,2.8903717578961645,2.1972245773362196,1.3862943611198906,1.5260563034950492,2.995732273553991,1.2229565534321856,0.6333585517205774
7.2,51.0,Không,Nhà mặt tiền,Giấy tờ hợp lệ,11.6,4.6,2,16.0596622,108.2121322, Đỗ Quang,Vĩnh Trung,thanh khê,3.833504767302232,0.0524890094715491,1.0484830818026558,1.9740810260220096,3.9318256327243257,0.6931471805599453,2.451005098112319,1.5260563034950492,1.3437794676060302,-2.9471514746990115
10.8,90.0,Không,Nhà mặt tiền,Không có,5.0,19.0,5,16.0585706,108.2054324, Nguyễn Văn Linh,Hòa Thuận Tây,hải châu,4.5604363210459615,0.6753726808198405,0.3317920992642868,2.379546134130174,4.499809670330265,1.6094379124341003,1.6094379124341003,2.9444389791664403,1.5174183033887345,-0.39249062073853125
7.9,105.0,Không,Nhà mặt tiền,Giấy tờ hợp lệ,7.0,15.0,3,16.0846923,108.2154509, Mai Am,Thanh Bình,hải châu,4.073824379674623,2.7992505407396404,3.3339469470636365,2.066862759472976,4.653960350157523,1.0986122886681098,1.9459101490553132,2.70805020110221,1.4045822092845428,1.0293517173311935
25.0,108.0,Không,Nhà mặt tiền,Giấy tờ hợp lệ,5.0,22.0,7,16.0690377,108.2154839, Chi Lăng,Hải Châu II,hải châu,3.4614463587162567,1.115605185666422,1.8953071270614588,3.2188758248682006,4.68213122712422,1.9459101490553132,1.6094379124341003,3.091042453358316,1.2416865244728275,0.10939702508095812
6.2,100.0,Không,Nhà mặt tiền,Giấy tờ hợp lệ,5.0,20.0,3,16.0743266,108.1653113, Nguyễn Xí,Hòa Minh,liên chiểu,8.860913342298423,5.216008071174232,4.422608607068493,1.824549292051046,4.605170185988092,1.0986122886681098,1.6094379124341003,2.995732273553991,2.1816498453421858,1.6517323720108525
18.0,10.0,Không,Nhà mặt tiền,Không có,10.0,21.0,3,16.0385745,108.2095787, Thân Cảnh Phúc,Hòa Cường Bắc,hải châu,4.998846779112979,2.344360963098496,2.191639633874809,2.8903717578961645,2.302585092994046,1.0986122886681098,2.302585092994046,3.044522437723423,1.6092072416542373,0.8520128543547764
16.0,125.0,Không,Nhà mặt tiền,Không có,5.0,25.0,3,16.0829842,108.222509, 3/2,Thuận Phước,hải châu,3.34466104852696,2.830282420146071,3.5550154060462016,2.772588722239781,4.8283137373023015,1.0986122886681098,1.6094379124341003,3.2188758248682006,1.2073653576617136,1.0403765017805646
5.4,70.0,Không,Nhà mặt tiền,Không có,4.5,16.0,3,16.0674661,108.1932536, Thái Thị Bôi,Chính Gián,thanh khê,5.816508032438447,2.148548751079927,1.5167105211395546,1.6863989535702288,4.248495242049359,1.0986122886681098,1.5040773967762742,2.772588722239781,1.7607000872482765,0.7647926147271348
16.3,100.0,Không,Nhà mặt tiền,Giấy tờ hợp lệ,10.0,10.0,3,16.0376383,108.2228608, Phan Đăng Lưu,Hòa Cường Bắc,hải châu,4.009143855461245,2.717152216121649,3.060147884876638,2.791165107812717,4.605170185988092,1.0986122886681098,2.302585092994046,2.302585092994046,1.3885777161448585,0.9995843524751127
14.5,115.0,Không,Nhà mặt tiền,Không có,4.0,22.0,3,16.0265835,108.2216438, Núi Thành,Hòa Cường Nam,hải châu,5.064918314100853,3.814118698517583,3.951732364242439,2.6741486494265287,4.74493212836325,1.0986122886681098,1.3862943611198906,3.091042453358316,1.622338010048554,1.3387096284867135
30.0,50.0,Không,Nhà mặt tiền,Không có,10.0,25.0,4,16.0769651,108.2077401, Nguyễn Tất Thành,Tam Thuận,thanh khê,4.4640479014140535,1.9593214614625285,2.25171715293669,3.4011973816621555,3.912023005428146,1.3862943611198906,2.302585092994046,3.2188758248682006,1.496055955624944,0.6725982201723868
8.2,100.0,Không,Nhà mặt tiền,Không có,5.0,20.0,3,16.0240983,108.2133727, Trần Thủ Độ,Khuê Trung,cẩm lệ,5.809576430911255,3.940222909621391,3.8398712721790655,2.1041341542702074,4.605170185988092,1.0986122886681098,1.6094379124341003,2.995732273553991,1.7595076647486183,1.3712372977555167
8.5,90.0,Không,Nhà mặt tiền,Không có,4.5,20.0,4,16.0409045,108.216236, Ỷ Lan Nguyên Phi,Hòa Cường Bắc,hải châu,4.274552178367,2.1335238989701337,2.316772417097155,2.1400661634962708,4.499809670330265,1.3862943611198906,1.5040773967762742,2.995732273553991,1.4526793433033196,0.7577750253502904
6.5,50.0,Không,Nhà mặt tiền,Không có,4.25,11.5,2,16.0752395,108.2178613, Lê Lai,Thạch Thang,hải châu,3.376606440437154,1.847406044367052,2.5731289915678763,1.8718021769015913,3.912023005428146,0.6931471805599453,1.4469189829363254,2.4423470353692043,1.2168711934325762,0.6137825169946923
13.3,130.0,Không,Nhà mặt tiền,Không có,5.0,26.0,3,16.0370813,108.2089625, Phan Đăng Lưu,Khuê Trung,cẩm lệ,5.149603894154175,2.5155707381203776,2.32790560798626,2.5877640352277083,4.867534450455582,1.0986122886681098,1.6094379124341003,3.258096538021482,1.6389197979611592,0.9224997114524309
21.5,100.0,Không,Nhà mặt tiền,Không có,6.5,15.5,2,16.0604012,108.2170183, Hoàng Diệu,Nam Dương,hải châu,3.304327533355402,0.5810390622936686,1.5756969397271998,3.068052935133617,4.605170185988092,0.6931471805599453,1.8718021769015913,2.740840023925201,1.1952329831169324,-0.5429372915267963
7.0,67.0,Không,Nhà mặt tiền,Không có,5.0,13.5,3,16.0482538,108.2223433, Tống Phước Phổ,Hòa Cường Bắc,hải châu,3.265485097425974,1.7047286767759406,2.327590026306745,1.9459101490553132,4.204692619390966,1.0986122886681098,1.6094379124341003,2.6026896854443837,1.1834083267078321,0.5334059642165914
6.2,90.0,Không,Nhà mặt tiền,Không có,5.0,18.0,2,16.0585706,108.2054324, Nguyễn Văn Linh,Hòa Thuận Tây,hải châu,4.5604363210459615,0.6753726808198405,0.3317920992642868,1.824549292051046,4.499809670330265,0.6931471805599453,1.6094379124341003,2.8903717578961645,1.5174183033887345,-0.39249062073853125
14.5,107.0,Không,Nhà mặt tiền,Không có,4.6,24.0,3,16.0606335,108.2093442, Phan Thanh,Thạc Gián,thanh khê,4.114958404858942,0.2681464382618427,0.8084728356482012,2.6741486494265287,4.672828834461906,1.0986122886681098,1.5260563034950492,3.1780538303479458,1.4146287259027184,-1.3162220362748591
8.4,109.0,Không,Nhà mặt tiền,Không có,5.0,20.0,3,16.0404694,108.2209616, Hàn Thuyên,Hòa Cường Bắc,hải châu,3.923874706317377,2.3467167350895424,2.6959151556381533,2.128231705849268,4.6913478822291435,1.0986122886681098,1.6094379124341003,2.995732273553991,1.367079611100929,0.8530172172498899
9.8,100.0,Không,Nhà mặt tiền,Không có,5.0,20.0,3,16.070034,108.1881192, Kỳ Đồng,Xuân Hà,thanh khê,6.384280074128596,2.76607576088617,2.1057168217212467,2.2823823856765264,4.605170185988092,1.0986122886681098,1.6094379124341003,2.995732273553991,1.853838730445937,1.017429622920311
18.0,75.0,Không,Nhà mặt tiền,Không có,5.0,15.0,3,16.0679058,108.2104343, Hoàng Hoa Thám,Vĩnh Trung,thanh khê,3.985191935149926,0.9209414423796412,1.4456743838233252,2.8903717578961645,4.31748811353631,1.0986122886681098,1.6094379124341003,2.70805020110221,1.3825854754863072,-0.0823588252262857
17.5,13.0,Không,Nhà mặt tiền,Không có,5.68,23.0,1,16.0490814,108.2194306, Duy Tân,Hòa Thuận Đông,hải châu,3.480357239690016,1.4375325654049007,2.0072219405627982,2.8622008809294686,2.5649493574615367,0.0,1.7369512327330598,3.1354942159291497,1.2471349436010484,0.3629281476274796
13.0,100.0,Không,Nhà mặt tiền,Không có,5.0,20.0,3,16.0419706,108.2135436, Nguyễn Hữu Dật,Hòa Cường Bắc,hải châu,4.435431449662891,1.9686828834751715,2.049795588920144,2.5649493574615367,4.605170185988092,1.0986122886681098,1.6094379124341003,2.995732273553991,1.489624893930182,0.6773647320774508
26.5,190.0,Không,Nhà mặt tiền,Không có,8.5,22.7,5,16.0756243,108.2319079, Ngô Quyền,An Hải Bắc,sơn trà,2.0522137939375127,2.796568797472516,3.733505998421484,3.2771447329921766,5.247024072160486,1.6094379124341003,2.1400661634962708,3.122364924487357,0.718919109960032,1.0283932362543946
16.0,84.0,Không,Nhà mặt tiền,Không có,4.15,21.54,6,16.0656447,108.2017156, Điện Biên Phủ,Chính Gián,thanh khê,4.904825881595817,1.25131956440354,0.938080530690646,2.772588722239781,4.430816798843313,1.791759469228055,1.423108334242607,3.0699116717282426,1.5902195942416493,0.2241986460288021
20.0,155.0,Không,Nhà mặt tiền,Không có,5.2,24.8,3,16.0790801,108.2236839, Nguyễn Du,Thạch Thang,hải châu,2.9976141627984205,2.505138922606017,3.3031497560011363,2.995732273553991,5.043425116919247,1.0986122886681098,1.6486586255873816,3.2108436531709366,1.097816693198756,0.9183441911252376
13.2,67.0,Không,Nhà mặt tiền,Không có,4.5,15.5,6,16.0475884,108.2453787, An Thượng 6,Mỹ An,ngũ hành sơn,1.928629922817648,3.8495031483130338,4.693159108174635,2.580216829592325,4.204692619390966,1.791759469228055,1.5040773967762742,2.740840023925201,0.6568098662790063,1.3479440875854922
10.0,100.0,Không,Nhà mặt tiền,Không có,5.0,20.0,5,16.0659224,108.1886334, Nguyễn Đức Trung,Hòa Khê,thanh khê,6.304935344898065,2.557407599641696,1.7838902779552854,2.302585092994046,4.605170185988092,1.6094379124341003,1.6094379124341003,2.995732273553991,1.8413327147882639,0.9389940890186128
12.0,130.0,Không,Nhà mặt tiền,Không có,10.0,13.0,2,16.0744881,108.240229, Dương Trí Trạch,An Hải Bắc,sơn trà,1.3196323962359588,3.470825739146003,4.450521527536584,2.4849066497880004,4.867534450455582,0.6931471805599453,2.302585092994046,2.5649493574615367,0.27735321011334785,1.2443925308213062
13.3,130.0,Không,Nhà mặt tiền,Không có,5.0,26.0,3,16.0376383,108.2228608, Phan Đăng Lưu,Hòa Cường Bắc,hải châu,4.009143855461245,2.717152216121649,3.060147884876638,2.5877640352277083,4.867534450455582,1.0986122886681098,1.6094379124341003,3.258096538021482,1.3885777161448585,0.9995843524751127
12.0,100.0,Không,Nhà mặt tiền,Không có,5.0,20.0,5,16.0409045,108.216236, Ỷ Lan Nguyên Phi,Hòa Cường Bắc,hải châu,4.274552178367,2.1335238989701337,2.316772417097155,2.4849066497880004,4.605170185988092,1.6094379124341003,1.6094379124341003,2.995732273553991,1.4526793433033196,0.7577750253502904
10.3,120.0,Không,Nhà mặt tiền,Không có,7.0,17.5,3,16.0366455,108.2211218, Tiên Sơn 8,Hòa Cường Nam,hải châu,4.214947052772332,2.7419693794412834,3.013796631241829,2.33214389523559,4.787491742782046,1.0986122886681098,1.9459101490553132,2.8622008809294686,1.4386370297550708,1.0086764138426423
5.6,81.0,Không,Nhà mặt tiền,Không có,4.5,18.0,3,16.0632203,108.1914377, Thân Nhân Trung,Hòa Khê,thanh khê,6.00672540640615,2.197349833853718,1.3728070388510571,1.7227665977411035,4.394449154672439,1.0986122886681098,1.5040773967762742,2.8903717578961645,1.7928797425551912,0.7872520132496332
8.0,108.0,Không,Nhà mặt tiền,Không có,4.5,24.0,3,16.0404694,108.2209616, Hàn Thuyên,Hòa Cường Bắc,hải châu,3.923874706317377,2.3467167350895424,2.6959151556381533,2.0794415416798357,4.68213122712422,1.0986122886681098,1.5040773967762742,3.1780538303479458,1.367079611100929,0.8530172172498899
8.5,56.0,Không,Nhà mặt tiền,Không có,4.0,16.0,5,16.067252,108.2404802, Phạm Tu,An Hải Bắc,sơn trà,0.8002017076055575,3.1978921444979025,4.19583187152183,2.1400661634962708,4.02535169073515,1.6094379124341003,1.3862943611198906,2.772588722239781,-0.22289144858782575,1.1624918879199233
4.2,80.0,Không,Nhà mặt tiền,Không có,5.0,16.0,1,16.034151,108.2081832, Nguyễn Dữ,Khuê Trung,cẩm lệ,5.41434598641509,2.8475963822028323,2.6199128961444087,1.4350845252893227,4.382026634673881,0.0,1.6094379124341003,2.772588722239781,1.689052095026664,1.0464752637743877
8.3,100.0,Không,Nhà mặt tiền,Không có,5.0,20.0,3,16.0754257,108.2323914, Đỗ Huy Uyển,An Hải Bắc,sơn trà,1.9973437453082103,2.8232435883243028,3.765162631201889,2.1162555148025524,4.605170185988092,1.0986122886681098,1.6094379124341003,2.995732273553991,0.6918181704712439,1.0378864325925174
5.6,59.0,Không,Nhà mặt tiền,Không có,6.0,9.5,4,16.077247,108.2196748, Lý Tự Trọng,Thạch Thang,hải châu,3.280930062097949,2.126937362188647,2.8679327567243256,1.7227665977411035,4.07753744390572,1.3862943611198906,1.791759469228055,2.2512917986064953,1.188126937719452,0.7546830868839777
4.95,70.0,Không,Nhà mặt tiền,Không có,5.0,14.0,4,16.0382452,108.2190396, Phan Huy Ôn,Hòa Cường Bắc,hải châu,4.242672513571202,2.499082677926075,2.7345637633959656,1.599387576580599,4.248495242049359,1.3862943611198906,1.6094379124341003,2.6390573296152584,1.445193380486603,0.9159237357097301
16.5,120.0,Không,Nhà mặt tiền,Không có,5.8,21.0,4,16.0589472,108.1853248, Hà Huy Tập,An Khê,thanh khê,6.690435611944938,2.817100568633591,1.865350542587688,2.803360380906535,4.787491742782046,1.3862943611198906,1.7578579175523736,3.044522437723423,1.9006789859134343,1.035708188872387
8.0,140.0,Không,Nhà mặt tiền,Không có,7.0,20.0,3,16.0794359,108.1672056, Phạm Đình Hổ,Hòa Minh,liên chiểu,8.74577210403151,5.233726229520666,4.521119307563326,2.0794415416798357,4.941642422609304,1.0986122886681098,1.9459101490553132,2.995732273553991,2.168570395485846,1.6551234965726989
13.0,7.0,Không,Nhà mặt tiền,Giấy tờ hợp lệ,6.0,13.0,4,16.0656447,108.2017156, Điện Biên Phủ,Chính Gián,thanh khê,4.904825881595817,1.25131956440354,0.938080530690646,2.5649493574615367,1.9459101490553132,1.3862943611198906,1.791759469228055,2.5649493574615367,1.5902195942416493,0.2241986460288021
9.5,14.0,Không,Nhà mặt tiền,Không có,5.8,43.0,1,16.0427332,108.2428481, Bà Huyện Thanh Quan,Mỹ An,ngũ hành sơn,2.50293418993956,3.829086990259891,4.588877644417808,2.2512917986064953,2.6390573296152584,0.0,1.7578579175523736,3.7612001156935624,0.9174637196307758,1.3426263910304799
20.0,59.0,Không,Nhà mặt tiền,Giấy tờ hợp lệ,5.5,11.0,3,16.0698397,108.2115701, Lê Duẩn,Tân Chính,thanh khê,3.88841536044275,1.1258653402444132,1.690805522306393,2.995732273553991,4.07753744390572,1.0986122886681098,1.7047480922384253,2.3978952727983707,1.3580017122817223,0.11855193130871218
24.5,125.0,Không,Nhà mặt tiền,Giấy tờ hợp lệ,5.0,22.0,6,16.0690377,108.2154839, Chi Lăng,Hải Châu II,hải châu,3.4614463587162567,1.115605185666422,1.8953071270614588,3.1986731175506815,4.8283137373023015,1.791759469228055,1.6094379124341003,3.091042453358316,1.2416865244728275,0.10939702508095812
6.5,76.0,Không,Nhà mặt tiền,Không có,4.5,17.0,2,16.0638721,108.2329652, Nguyễn Văn Siêu,An Hải Tây,sơn trà,1.5644898846300943,2.328643014830048,3.324722256475166,1.8718021769015913,4.330733340286331,0.6931471805599453,1.5040773967762742,2.833213344056216,0.44755981854507615,0.8452857008499116
17.5,100.0,Không,Nhà mặt tiền,Không có,5.0,20.0,8,16.0698367,108.2367705, Nguyễn Xuân Khoát,An Hải Bắc,sơn trà,1.27655611984508,2.914842584015846,3.9073231654723375,2.8622008809294686,4.605170185988092,2.0794415416798357,1.6094379124341003,2.995732273553991,0.244165920575621,1.0698158162914093
7.2,68.0,Không,Nhà mặt tiền,Không có,4.5,15.3,4,16.078156,108.2150772, Lý Tự Trọng,Thanh Bình,hải châu,3.771723411774994,2.0788740580823646,2.670660212424873,1.9740810260220096,4.219507705176107,1.3862943611198906,1.5040773967762742,2.72785282839839,1.327532035405848,0.7318264289179865
11.0,71.0,Không,Nhà mặt tiền,Không có,5.0,14.0,3,16.0253941,108.2219221, Lê Thanh Nghị,Hòa Cường Nam,hải châu,5.15968931167554,3.948814826453508,4.080164080824873,2.3978952727983707,4.2626798770413155,1.0986122886681098,1.6094379124341003,2.6390573296152584,1.6408763667651283,1.373415489955022
12.0,110.0,Không,Nhà mặt tiền,Không có,11.0,10.0,2,16.0834758,108.2142269, Thanh Thủy,Thanh Bình,hải châu,4.115937120556901,2.6492828482404294,3.158100301174514,2.4849066497880004,4.700480365792417,0.6931471805599453,2.3978952727983707,2.302585092994046,1.4148665410224828,0.9742889800675378
9.0,100.0,Không,Nhà mặt tiền,Không có,5.0,20.0,3,16.0755861,108.1760613, Lý Thái Tông,Thanh Khê Tây,thanh khê,7.739958819520965,4.194908209659657,3.497847225645176,2.1972245773362196,4.605170185988092,1.0986122886681098,1.6094379124341003,2.995732273553991,2.0463963671121546,1.4338714587881598
11.5,10.0,Không,Nhà mặt tiền,Không có,5.0,20.0,3,16.0353736,108.2143518, Huỳnh Tấn Phát,Hòa Cường Nam,hải châu,4.82571608044144,2.703751123259102,2.721549913201162,2.4423470353692043,2.302585092994046,1.0986122886681098,1.6094379124341003,2.995732273553991,1.5739591342333918,0.994640113729928
42.0,190.0,Không,Nhà mặt tiền,Không có,10.0,19.0,1,16.065324,108.2444852, Hà Chương,Phước Mỹ,sơn trà,0.331283403570451,3.569634671150184,4.563823306552752,3.7376696182833684,5.247024072160486,0.0,2.302585092994046,2.9444389791664403,-1.1047810657984145,1.272463257544015
8.3,65.0,Không,Nhà mặt tiền,Không có,4.5,14.5,5,16.0873004,108.2193575, Cao Xuân Dục,Thuận Phước,hải châu,3.904848825283487,3.1675069340093143,3.777799418912912,2.1162555148025524,4.174387269895637,1.6094379124341003,1.5040773967762742,2.6741486494265287,1.362219069426653,1.152944822321831
20.0,59.0,Không,Nhà mặt tiền,Không có,5.4,11.0,3,16.0698397,108.2115701, Lê Duẩn,Tân Chính,thanh khê,3.88841536044275,1.1258653402444132,1.690805522306393,2.995732273553991,4.07753744390572,1.0986122886681098,1.6863989535702288,2.3978952727983707,1.3580017122817223,0.11855193130871218
5.95,86.0,Không,Nhà mặt tiền,Không có,5.0,15.0,3,16.0649797,108.198504, Bế Văn Đàn,Chính Gián,thanh khê,5.247773043648762,1.5237805374226177,0.9675237196321947,1.7833912195575383,4.454347296253507,1.0986122886681098,1.6094379124341003,2.70805020110221,1.6578038044506893,0.4211944425789698
9.8,50.0,Không,Nhà mặt tiền,Không có,4.0,12.5,3,16.0606335,108.2093442, Phan Thanh,Thạc Gián,thanh khê,4.114958404858942,0.2681464382618427,0.8084728356482012,2.2823823856765264,3.912023005428146,1.0986122886681098,1.3862943611198906,2.5257286443082556,1.4146287259027184,-1.3162220362748591
20.0,126.0,Không,Nhà mặt tiền,Không có,5.45,24.0,3,16.0693719,108.2204069, Phan Châu Trinh,Hải Châu I,hải châu,2.946169589185153,1.4259204951605025,2.326539964933259,2.995732273553991,4.836281906951478,1.0986122886681098,1.6956156086751528,3.1780538303479458,1.0805058822984366,0.35481756669341824
5.6,70.0,Không,Nhà mặt tiền,Không có,5.0,14.0,3,16.0327697,108.2155964, Huy Cận,Hòa Cường Nam,hải châu,4.931994610337267,3.0062339205199984,3.038708960872851,1.7227665977411035,4.248495242049359,1.0986122886681098,1.6094379124341003,2.6390573296152584,1.5957434925069482,1.1006881061740537
17.0,100.0,Không,Nhà mặt tiền,Không có,7.0,15.0,2,16.0517207,108.2401221, Châu Thị Vĩnh Tế,Mỹ An,ngũ hành sơn,1.6599054092668464,3.171826157774691,4.053959031899559,2.833213344056216,4.605170185988092,0.6931471805599453,1.9459101490553132,2.70805020110221,0.5067606183755253,1.1543074970294693
13.0,146.0,Không,Nhà mặt tiền,Không có,8.8,18.0,3,16.0382374,108.2163652, Nguyễn Cư Trinh,Hòa Cường Bắc,hải châu,4.453462990329684,2.424520622569639,2.561341068212001,2.5649493574615367,4.983606621708336,1.0986122886681098,2.174751721484161,2.8903717578961645,1.4936819936115573,0.8856338234333185
7.5,80.0,Không,Nhà mặt tiền,Không có,5.0,16.0,3,16.0383613,108.2175473, Nguyễn Đổng Chi,Hòa Cường Bắc,hải châu,4.350225911820616,2.44076648009158,2.6248707933712474,2.0149030205422647,4.382026634673881,1.0986122886681098,1.6094379124341003,2.772588722239781,1.4702277775039478,0.8923121211613136
16.5,80.0,Không,Nhà mặt tiền,Không có,5.0,16.0,3,16.0486433,108.2485294, An Thượng 1,Mỹ An,ngũ hành sơn,1.8009277618289568,4.131352317892098,4.998604841736438,2.803360380906535,4.382026634673881,1.0986122886681098,1.6094379124341003,2.772588722239781,0.588301955355496,1.4186047911231725
30.0,50.0,Không,Nhà mặt tiền,Giấy tờ hợp lệ,10.0,25.0,4,16.0769651,108.2077401, Nguyễn Tất Thành,Tam Thuận,thanh khê,4.4640479014140535,1.9593214614625285,2.25171715293669,3.4011973816621555,3.912023005428146,1.3862943611198906,2.302585092994046,3.2188758248682006,1.496055955624944,0.6725982201723868
29.0,86.85547250981791,Không,Nhà mặt tiền,Không có,9.5,24.0,3,16.068177,108.2392192, Dương Đình Nghệ,An Hải Bắc,sơn trà,0.9626007776598884,3.0974688974354536,4.095001816980483,3.367295829986474,4.464245501753445,1.0986122886681098,2.2512917986064953,3.1780538303479458,-0.038116514239063794,1.1305852932876816
6.4,90.0,Không,Nhà mặt tiền,Không có,5.0,18.0,1,16.030072,108.2112972, Nguyễn Phong Sắc,Khuê Trung,cẩm lệ,5.467510656087649,3.27503015447001,3.142698725408692,1.8562979903656263,4.499809670330265,0.0,1.6094379124341003,2.8903717578961645,1.698823422554111,1.1863270765165854
38.0,30.0,Không,Nhà mặt tiền,Không có,10.0,23.0,5,16.0245072,108.2091787, Nguyễn Hữu Thọ,Khuê Trung,cẩm lệ,6.068675813813078,3.89953512871535,3.686178641284242,3.6375861597263857,3.4011973816621555,1.6094379124341003,2.302585092994046,3.1354942159291497,1.8031404286883341,1.3608573482656876
25.0,310.0,Không,Nhà mặt tiền,Không có,10.0,23.0,2,16.0658351,108.1905312, Điện Biên Phủ,Hòa Khê,thanh khê,6.101734271305003,2.3597516501080484,1.610960434371195,3.2188758248682006,5.736572297479192,0.6931471805599453,2.302585092994046,3.1354942159291497,1.808573037543066,0.8585563804950733
12.9,140.0,Không,Nhà mặt tiền,Không có,4.5,30.0,2,16.0810631,108.217488, Lương Ngọc Quyến,Thanh Bình,hải châu,3.680746407541048,2.4490498089336112,3.078691608961818,2.5572273113676265,4.941642422609304,0.6931471805599453,1.5040773967762742,3.4011973816621555,1.3031155597501485,0.8957001162416106
13.5,65.0,Không,Nhà mặt tiền,Không có,7.1,10.0,3,16.0784291,108.2194114, Lê Lợi,Thạch Thang,hải châu,3.3627667252479254,2.236583708847542,2.953000530041072,2.6026896854443837,4.174387269895637,1.0986122886681098,1.9600947840472698,2.302585092994046,1.2127640652758223,0.8049495716935973
7.3,60.0,Không,Nhà mặt tiền,Không có,5.0,12.0,3,16.0834758,108.2142269, Thanh Thủy,Thanh Bình,hải châu,4.115937120556901,2.6492828482404294,3.158100301174514,1.9878743481543455,4.0943445622221,1.0986122886681098,1.6094379124341003,2.4849066497880004,1.4148665410224828,0.9742889800675378
13.5,180.0,Không,Nhà mặt tiền,Không có,6.0,30.0,4,16.0334743,108.2218767, Tiên Sơn 10,Hòa Cường Nam,hải châu,4.4308393785108064,3.098364942182785,3.3360939696302885,2.6026896854443837,5.19295685089021,1.3862943611198906,1.791759469228055,3.4011973816621555,1.4885890420705488,1.1308745343411937
6.1,80.0,Không,Nhà mặt tiền,Không có,5.0,18.0,2,16.0411852,108.2413304, Hoài Thanh,Mỹ An,ngũ hành sơn,2.7062495765899257,3.778228723064128,4.501791899945291,1.8082887711792655,4.382026634673881,0.6931471805599453,1.6094379124341003,2.8903717578961645,0.9955637563122722,1.329255308026081
16.5,171.0,Không,Nhà mặt tiền,Không có,8.1,19.0,1,16.0600634,108.2135488, Nguyễn Hoàng,Bình Hiên,hải châu,3.677019358396333,0.2087568387355273,1.206391277618806,2.803360380906535,5.14166355650266,0.0,2.0918640616783932,2.9444389791664403,1.3021024670309584,-1.566585155378071
3.95,56.0,Không,Nhà mặt tiền,Không có,4.0,14.0,2,16.0883921,108.2162174, Huỳnh Lý,Thuận Phước,hải châu,4.242781813595658,3.216318260091544,3.742119153958609,1.3737155789130306,4.02535169073515,0.6931471805599453,1.3862943611198906,2.6390573296152584,1.4452191422243363,1.1682373078916077
29.0,4.0,Không,Nhà mặt tiền,Không có,7.7,24.5,6,16.0434474,108.2173735, Lê Thanh Nghị,Hòa Cường Bắc,hải châu,4.007019681962558,1.8966254679872487,2.19065966190869,3.367295829986474,1.3862943611198906,1.791759469228055,2.0412203288596382,3.1986731175506815,1.3880477435367677,0.6400762376106173
27.0,395.0,Không,Nhà mặt tiền,Không có,20.0,20.0,3,16.0142523,108.2074841, Hoàng Xuân Hãn,Khuê Trung,cẩm lệ,7.0556218644413455,5.045070520910605,4.78236117225,3.295836866004329,5.978885764901122,1.0986122886681098,2.995732273553991,2.995732273553991,1.9538247266280617,1.6184116320846063
6.5,160.0,Không,Nhà mặt tiền,Không có,8.0,20.0,3,16.065653,108.1454414, Khánh An 2,Hòa Khánh Nam,liên chiểu,10.925756184055114,7.114410517501888,6.1938072778520725,1.8718021769015913,5.075173815233827,1.0986122886681098,2.0794415416798357,2.995732273553991,2.39112295451816,1.9621223774421712
15.0,19.0,Không,Nhà mặt tiền,Không có,10.0,19.2,2,16.0314422,108.2376829, Chương Dương,Khuê Mỹ,ngũ hành sơn,3.84894212866729,4.185679980325732,4.709275390834101,2.70805020110221,2.9444389791664403,0.6931471805599453,2.302585092994046,2.954910279033736,1.3477983387682824,1.4316691711075054
15.0,5.0,Không,Nhà mặt tiền,Không có,14.3,18.0,2,16.0172054,108.2084021, Phan Văn Trị,Khuê Trung,cẩm lệ,6.737453259158979,4.711399097584559,4.470048515679327,2.70805020110221,1.6094379124341003,0.6931471805599453,2.6602595372658615,2.8903717578961645,1.9076819987949445,1.5499849122376488
8.0,78.0,Không,Nhà mặt tiền,Không có,4.5,17.5,3,16.038086,108.2159511, Ngô Tất Tố,Hòa Cường Bắc,hải châu,4.497792035362378,2.4321191789611536,2.550130609384356,2.0794415416798357,4.356708826689592,1.0986122886681098,1.5040773967762742,2.8622008809294686,1.5035866175554913,0.8887629674102923
5.4,76.0,Không,Nhà mặt tiền,Không có,4.0,17.0,3,16.0315643,108.2287936, Nguyễn Thành Ý,Hòa Cường Nam,hải châu,4.198550669705128,3.610948245659809,3.9844832750914367,1.6863989535702288,4.330733340286331,1.0986122886681098,1.3862943611198906,2.833213344056216,1.4347393870943512,1.2839704097804836
16.0,150.0,Không,Nhà mặt tiền,Không có,5.0,30.0,2,16.0316233,108.2127336, Xô Viết Nghệ Tĩnh,Khuê Trung,cẩm lệ,5.237488684143685,3.105356492143088,3.030227854884885,2.772588722239781,5.0106352940962555,0.6931471805599453,1.6094379124341003,3.4011973816621555,1.6558421247005637,1.1331285210794246
6.5,110.0,Không,Nhà mặt tiền,Không có,5.0,22.0,3,16.0664386,108.1810166, Mẹ Nhu,Thanh Khê Tây,thanh khê,7.120946963979735,3.3615215359053967,2.531242565670903,1.8718021769015913,4.700480365792417,1.0986122886681098,1.6094379124341003,3.091042453358316,1.9630407171390458,1.2123937095419806
6.1,75.0,Không,Nhà mặt tiền,Không có,5.0,15.0,3,16.0649797,108.198504, Bế Văn Đàn,Chính Gián,thanh khê,5.247773043648762,1.5237805374226177,0.9675237196321947,1.8082887711792655,4.31748811353631,1.0986122886681098,1.6094379124341003,2.70805020110221,1.6578038044506893,0.4211944425789698
11.0,11.0,Không,Nhà mặt tiền,Không có,5.0,22.5,5,16.0404694,108.2209616, Hàn Thuyên,Hòa Cường Bắc,hải châu,3.923874706317377,2.3467167350895424,2.6959151556381533,2.3978952727983707,2.3978952727983707,1.6094379124341003,1.6094379124341003,3.1135153092103742,1.367079611100929,0.8530172172498899
5.0,10.0,Không,Nhà mặt tiền,Không có,8.0,13.5,2,16.06214,108.17636, Nguyễn Như Hạnh,Hòa Minh,liên chiểu,7.623297230884605,3.785121722201558,2.8669706276523463,1.6094379124341003,2.302585092994046,0.6931471805599453,2.0794415416798357,2.6026896854443837,2.0312089835728484,1.3310780454744482
4.7,81.0,Không,Nhà mặt tiền,Không có,4.5,18.0,2,16.0620889,108.1909028, Nguyễn Biểu,Hòa Khê,thanh khê,6.069055663811194,2.2352407294805063,1.3692145524167645,1.547562508716013,4.394449154672439,0.6931471805599453,1.5040773967762742,2.8903717578961645,1.8032030186375254,0.8043489312051646
14.75,100.0,Không,Nhà mặt tiền,Không có,5.0,20.0,3,16.0376383,108.2228608, Phan Đăng Lưu,Hòa Cường Bắc,hải châu,4.009143855461245,2.717152216121649,3.060147884876638,2.691243082785829,4.605170185988092,1.0986122886681098,1.6094379124341003,2.995732273553991,1.3885777161448585,0.9995843524751127
8.7,126.0,Không,Nhà mặt tiền,Không có,4.5,28.0,2,16.0631819,108.1848702, Huỳnh Ngọc Huệ,An Khê,thanh khê,6.709270586723101,2.890895199502064,2.01527528262713,2.163323025660538,4.836281906951478,0.6931471805599453,1.5040773967762742,3.332204510175204,1.9034902396683362,1.061566211772527
5.895,100.0,Không,Nhà mặt tiền,Không có,5.0,20.0,4,16.0148532,108.2214454, Thanh Lương 21,Hòa Xuân,cẩm lệ,6.201766427724864,5.06868535494336,5.100613523267016,1.7741045339893342,4.605170185988092,1.3862943611198906,1.6094379124341003,2.995732273553991,1.8248341591701136,1.6230814851515987
5.095,87.0,Không,Nhà mặt tiền,Không có,5.0,17.5,3,16.0775276,108.1653082, Phùng Chí Kiên,Hòa Minh,liên chiểu,8.909861511722013,5.337082919859059,4.5856977231146026,1.628259666674688,4.465908118654584,1.0986122886681098,1.6094379124341003,2.8622008809294686,2.187158698345315,1.674679234023142
5.395,100.0,Không,Nhà mặt tiền,Không có,5.0,20.0,3,16.003473,108.2227152, Nguyễn Sắc Kim,Hòa Xuân,cẩm lệ,7.297486733820047,6.330154168956304,6.322531267265707,1.6854725987100978,4.605170185988092,1.0986122886681098,1.6094379124341003,2.995732273553991,1.9875300058369842,1.8453245911448557
7.95,97.0,Không,Nhà mặt tiền,Không có,5.0,19.5,4,16.0340279,108.2086379, Phạm Phú Tiết,Khuê Trung,cẩm lệ,5.3852071799055325,2.855217323985112,2.6445224011386603,2.0731719286662407,4.574710978503383,1.3862943611198906,1.6094379124341003,2.970414465569701,1.6836557833883268,1.0491479606961096
4.7,68.0,Không,Nhà mặt tiền,Không có,5.0,14.0,3,16.0311345,108.2270147, Lê Anh Xuân,Hòa Cường Nam,hải châu,4.333729075873777,3.560121910104603,3.888463720013613,1.547562508716013,4.219507705176107,1.0986122886681098,1.6094379124341003,2.6390573296152584,1.4664283898251755,1.269794788689018
8.5,61.0,Không,Nhà mặt tiền,Không có,4.7,12.8,4,16.056838,108.236577, Phạm Cự Lượng,An Hải Đông,sơn trà,1.47384203467243,2.686449500793481,3.628919074349536,2.1400661634962708,4.110873864173311,1.3862943611198906,1.547562508716013,2.5494451709255714,0.38787262023079977,0.98822043361326
7.0,81.0,Không,Nhà mặt tiền,Không có,4.5,18.0,4,16.0585049,108.185654, Lý Triện,An Khê,thanh khê,6.660404026000368,2.783721542377011,1.825846780232388,1.9459101490553132,4.394449154672439,1.3862943611198906,1.5040773967762742,2.8903717578961645,1.8961801472768973,1.023788716771857
6.6,85.0,Không,Nhà mặt tiền,Không có,5.0,17.0,2,16.0449981,108.2167919, Nguyễn Sơn Hà,Hòa Cường Bắc,hải châu,3.959417285308429,1.7141235280933038,2.0281595984873984,1.8870696490323797,4.442651256490317,0.6931471805599453,1.6094379124341003,2.833213344056216,1.376096864264101,0.5389018876447705
4.9,68.0,Không,Nhà trong hẻm,Không có,4.5,15.0,2,16.0789946,108.2149183, Hải Hồ,Thanh Bình,hải châu,3.824309318250638,2.167457805734444,2.7433922900828707,1.589235205116581,4.219507705176107,0.6931471805599453,1.5040773967762742,2.70805020110221,1.341377880581713,0.7735549626938956
12.0,16.0,Không,Nhà trong hẻm,Không có,9.5,17.0,2,16.0578969,108.2434351, Nguyễn Văn Thoại,Phước Mỹ,sơn trà,0.8902881268147573,3.4076197650363413,4.363156585853074,2.4849066497880004,2.772588722239781,0.6931471805599453,2.2512917986064953,2.833213344056216,-0.11621013065367941,1.2260140314503762
6.8,104.0,Không,Nhà trong hẻm,Không có,5.5,18.5,2,16.0557495,108.2097934, Lê Đình Lý,Vĩnh Trung,thanh khê,4.164597959463049,0.4763673161504429,0.7798318410034896,1.916922612182061,4.6443908991413725,0.6931471805599453,1.7047480922384253,2.917770732084279,1.4266197426194416,-0.7415660497519592
15.3,138.0,Không,Nhà trong hẻm,Không có,7.2,17.0,6,16.0409045,108.216236, Ỷ Lan Nguyên Phi,Hòa Cường Bắc,hải châu,4.274552178367,2.1335238989701337,2.316772417097155,2.72785282839839,4.927253685157205,1.791759469228055,1.9740810260220096,2.833213344056216,1.4526793433033196,0.7577750253502904
10.25,168.0,Không,Nhà trong hẻm,Không có,7.0,24.0,2,16.0545048,108.2401907, Nguyễn Văn Thoại,An Hải Đông,sơn trà,1.3930607655585696,3.107784821737904,4.026584164349606,2.327277705584417,5.123963979403259,0.6931471805599453,1.9459101490553132,3.1780538303479458,0.3315033159270643,1.1339101964335765
6.2,105.0,Không,Nhà trong hẻm,Không có,5.0,21.0,3,16.0536091,108.20467, Thi Sách,Hòa Thuận Tây,hải châu,4.754930223728085,1.0028554001820016,0.453260725546583,1.824549292051046,4.653960350157523,1.0986122886681098,1.6094379124341003,3.044522437723423,1.5591820215948555,0.0028513312706418
3.9,90.0,Không,Nhà trong hẻm,Không có,5.0,17.78,2,16.0382864,108.2213353, Núi Thành,Hòa Cường Bắc,hải châu,4.066315876444203,2.583237451838292,2.89481433902592,1.3609765531356006,4.499809670330265,0.6931471805599453,1.6094379124341003,2.8780742300857587,1.402737399459733,0.9490434385909164
6.9,140.0,Không,Nhà trong hẻm,Không có,8.4,16.0,1,16.0751042,108.2073603, Trần Cao Vân,Tam Thuận,thanh khê,4.446100836465397,1.7687584978483872,2.042094465794425,1.9315214116032138,4.941642422609304,0.0,2.128231705849268,2.772588722239781,1.4920274955514325,0.5702778868351202
14.0,55.0,Không,Nhà trong hẻm,Không có,11.0,23.0,1,16.0597301,108.2380867, Lê Hữu Trác,An Hải Đông,sơn trà,1.1623612636964813,2.8296940641110613,3.800378224485008,2.6390573296152584,4.007333185232471,0.0,2.3978952727983707,3.1354942159291497,0.1504535083006348,1.0401686012570324
5.2,70.0,Không,Nhà trong hẻm,Không có,5.0,14.0,2,16.0620261,108.2372996, Võ Văn Kiệt,An Hải Đông,sơn trà,1.141531963216475,2.757844045524604,3.743957709754953,1.6486586255873816,4.248495242049359,0.6931471805599453,1.6094379124341003,2.6390573296152584,0.13237118766137185,1.0144492315520817
5.5,100.0,Không,Nhà trong hẻm,Không có,5.0,10.0,2,16.0525986,108.209006, Đặng Thùy Trâm,Hòa Thuận Tây,hải châu,4.342688198780041,0.831348949009912,0.8494512806729596,1.7047480922384253,4.605170185988092,0.6931471805599453,1.6094379124341003,2.302585092994046,1.468493557003475,-0.18470565769344197
7.5,111.0,Không,Nhà trong hẻm,Không có,6.0,16.5,3,16.0661407,108.2070275, Lý Thái Tổ,Thạc Gián,thanh khê,4.337946556004268,0.870141834326494,1.092202714718076,2.0149030205422647,4.709530201312334,1.0986122886681098,1.791759469228055,2.803360380906535,1.4674010923666585,-0.13909905265963432
5.2,70.0,Không,Nhà trong hẻm,Không có,5.0,14.0,2,16.0613274,108.2340679, Võ Văn Kiệt,An Hải Tây,sơn trà,1.4953575373534038,2.406688058434442,3.390795252401272,1.6486586255873816,4.248495242049359,0.6931471805599453,1.6094379124341003,2.6390573296152584,0.4023653336698879,0.8782515527432894
6.5,65.0,Không,Nhà trong hẻm,Không có,5.1,14.0,3,16.071472,108.2211764, Lê Duẩn,Hải Châu I,hải châu,2.91425886923023,1.6576154109612464,2.532052967922729,1.8718021769015913,4.174387269895637,1.0986122886681098,1.62924053973028,2.6390573296152584,1.0696155402137844,0.5053800701930702
5.2,70.0,Không,Nhà trong hẻm,Không có,5.0,14.0,2,16.0614405,108.2329761, Đông Giang,An Hải Tây,sơn trà,1.6053198904577066,2.291260145068444,3.276823363851232,1.6486586255873816,4.248495242049359,0.6931471805599453,1.6094379124341003,2.6390573296152584,0.4733230454190301,0.8291019479059771
10.9,100.0,Không,Nhà mặt tiền,Giấy tờ hợp lệ,5.0,20.0,6,16.0658351,108.1905312, Điện Biên Phủ,Hòa Khê,thanh khê,6.101734271305003,2.3597516501080484,1.610960434371195,2.388762789235098,4.605170185988092,1.791759469228055,1.6094379124341003,2.995732273553991,1.808573037543066,0.8585563804950733
4.28,90.0,Tây Bắc,Nhà mặt tiền,Giấy tờ hợp lệ,4.06,18.0,2,16.0240456,108.2103341, Nguyễn Trung Ngạn,Khuê Trung,cẩm lệ,6.023948747153598,3.944180730095847,3.761377119367541,1.4539530095937054,4.499809670330265,0.6931471805599453,1.4011829736136412,2.8903717578961645,1.795742982352766,1.372241259751312
6.5,95.0,Đông Bắc,Nhà mặt tiền,Giấy tờ hợp lệ,5.0,19.0,3,16.0257227,108.2439839, Đoàn Khuê,Khuê Mỹ,ngũ hành sơn,4.350993912242096,5.107529359014842,5.629998508433773,1.8718021769015913,4.553876891600541,1.0986122886681098,1.6094379124341003,2.9444389791664403,1.4704043045746353,1.6307157959094367
3.85,100.0,Đông Nam,Nhà mặt tiền,Giấy tờ hợp lệ,5.0,20.0,2,16.0212756,108.2004817, Bùi Vịnh,Hòa Thọ Đông,cẩm lệ,6.975815789478457,4.412896672312063,3.984146342579829,1.3480731482996928,4.605170185988092,0.6931471805599453,1.6094379124341003,2.995732273553991,1.9424492799332629,1.4845313156267184
5.5,150.0,Tây Nam,Nhà mặt tiền,Giấy tờ hợp lệ,5.0,30.0,1,16.0723048,108.1472133, Đồng Kè,Hòa Khánh Bắc,liên chiểu,10.766967754382824,7.034231089625177,6.163786505545406,1.7047480922384253,5.0106352940962555,0.0,1.6094379124341003,3.4011973816621555,2.3764829059728516,1.9507883867428968
3.88,90.0,Tây Bắc,Nhà mặt tiền,Giấy tờ hợp lệ,4.5,20.0,2,16.058024,108.1602192, Đồng Trí 3,Hòa Khánh Nam,liên chiểu,9.37522951494633,5.505357683603084,4.542775329019462,1.355835153635182,4.499809670330265,0.6931471805599453,1.5040773967762742,2.995732273553991,2.2380710531510806,1.7057217423787239
3.45,71.0,Đông Nam,Nhà trong hẻm,Giấy tờ hợp lệ,4.5,17.0,2,16.0515707,108.1690183, Nguyễn Huy Tưởng,Hòa Minh,liên chiểu,8.531294466356936,4.648040614066929,3.654241019885518,1.2383742310432684,4.2626798770413155,0.6931471805599453,1.5040773967762742,2.833213344056216,2.1437411045453567,1.5364457574776411
2.95,117.0,Bắc,Nhà trong hẻm,Giấy tờ hợp lệ,5.0,22.0,1,16.0638041,108.1488096, Nam Cao,Hòa Khánh Nam,liên chiểu,10.565766495853987,6.738701869171807,5.808596524198649,1.0818051703517284,4.762173934797756,0.0,1.6094379124341003,3.091042453358316,2.3576191989194646,1.9078673053611737
2.85,68.0,Tây Nam,Nhà trong hẻm,Giấy tờ hợp lệ,3.3,20.0,2,16.0583615,108.1683251, Tô Hiệu,Hòa Minh,liên chiểu,8.507768670810812,4.637246247012794,3.676714756835964,1.0473189942805592,4.219507705176107,0.6931471805599453,1.1939224684724346,2.995732273553991,2.1409797073598384,1.5341207088112163
2.6,65.0,Đông,Nhà trong hẻm,Giấy tờ hợp lệ,4.0,16.0,2,16.0583615,108.1683251, Tô Hiệu,Hòa Minh,liên chiểu,8.507768670810812,4.637246247012794,3.676714756835964,0.9555114450274363,4.174387269895637,0.6931471805599453,1.3862943611198906,2.772588722239781,2.1409797073598384,1.5341207088112163
5.0,90.0,Đông Bắc,Nhà mặt tiền,Giấy tờ hợp lệ,5.0,18.0,3,16.0768743,108.1613001, Trần Quý Khoách,Hòa Minh,liên chiểu,9.3230983465541,5.713151408100895,4.93166523441203,1.6094379124341003,4.499809670330265,1.0986122886681098,1.6094379124341003,2.8903717578961645,2.2324950140687543,1.7427707817718359
3.2,71.0,Đông Nam,Nhà trong hẻm,Giấy tờ hợp lệ,3.5,20.0,2,16.0844706,108.1395853, Nguyễn Lương Bằng,Hòa Khánh Bắc,liên chiểu,11.752944290445406,8.183793836048054,7.392495166521861,1.1631508098056809,4.2626798770413155,0.6931471805599453,1.252762968495368,2.995732273553991,2.4641037871110143,2.1021558372333016
2.85,74.0,Tây Bắc,Nhà trong hẻm,Giấy tờ hợp lệ,4.7,15.7,2,16.0554848,108.1553766, Hoàng Văn Thái,Hòa Khánh Nam,liên chiểu,9.917383246685455,6.03832112693159,5.063737357990122,1.0473189942805592,4.30406509320417,0.6931471805599453,1.547562508716013,2.7536607123542622,2.2942891008828505,1.7981260141916418
3.6,76.0,Tây Bắc,Nhà trong hẻm,Giấy tờ hợp lệ,4.0,19.0,3,16.0705872,108.1527666, Tôn Đức Thắng,Hòa Khánh Bắc,liên chiểu,10.161087742443131,6.414493194001564,5.540379991525375,1.2809338454620642,4.330733340286331,1.0986122886681098,1.3862943611198906,2.9444389791664403,2.3185654976837755,1.858559991673343
2.3,75.0,Đông Bắc,Nhà trong hẻm,Giấy tờ hợp lệ,5.0,15.0,1,16.0844706,108.1395853, Nguyễn Lương Bằng,Hòa Khánh Bắc,liên chiểu,11.752944290445406,8.183793836048054,7.392495166521861,0.8329091229351039,4.31748811353631,0.0,1.6094379124341003,2.70805020110221,2.4641037871110143,2.1021558372333016
2.74,6.0,Tây Nam,Nhà trong hẻm,Giấy tờ hợp lệ,4.0,14.0,2,16.0860398,108.1555523, Nguyễn Chánh,Hòa Minh,liên chiểu,10.117483091459665,6.67334852323419,5.965199341734908,1.007957920399979,1.791759469228055,0.6931471805599453,1.3862943611198906,2.6390573296152584,2.314264926549256,1.8981217614252939
2.35,99.0,Tây Bắc,Nhà trong hẻm,Giấy tờ hợp lệ,5.0,19.0,2,16.0415679,108.1813377, Tôn Đản,Hòa An,cẩm lệ,7.540386123959919,3.81132784558817,2.864890139485825,0.8544153281560676,4.59511985013459,0.6931471805599453,1.6094379124341003,2.9444389791664403,2.0202733907829336,1.3379776443234563
2.85,86.0,Tây Nam,Nhà trong hẻm,Giấy tờ hợp lệ,4.0,22.0,2,16.0515707,108.1690183, Nguyễn Huy Tưởng,Hòa Minh,liên chiểu,8.531294466356936,4.648040614066929,3.654241019885518,1.0473189942805592,4.454347296253507,0.6931471805599453,1.3862943611198906,3.091042453358316,2.1437411045453567,1.5364457574776411
2.85,60.0,Không,Nhà mặt tiền,Giấy tờ hợp lệ,4.0,14.0,2,16.0112356,108.2002191, Bình Thái 4,Hòa Thọ Đông,cẩm lệ,7.804217058592689,5.496878681377828,5.095032287792605,1.0473189942805592,4.0943445622221,0.6931471805599453,1.3862943611198906,2.6390573296152584,2.054664236135306,1.7041804186655087
4.2,88.0,Đông Nam,Nhà mặt tiền,Giấy tờ hợp lệ,5.0,17.7,2,16.0497991,108.1737096, Lê Vĩnh Khanh,Hòa An,cẩm lệ,8.075611672112421,4.203215396112528,3.205341209039846,1.4350845252893227,4.477336814478207,0.6931471805599453,1.6094379124341003,2.8735646395797834,2.088848615108331,1.4358498028926885
8.49,109.0,Không,Nhà mặt tiền,Không có,10.44030650891055,10.44030650891055,3,16.0382864,108.2213353, Núi Thành,Hòa Cường Bắc,hải châu,4.066315876444203,2.583237451838292,2.89481433902592,2.138889000323256,4.6913478822291435,1.0986122886681098,2.3456739411145717,2.3456739411145717,1.402737399459733,0.9490434385909164
15.0,370.0,Không,Nhà mặt tiền,Không có,19.235384061671343,19.235384061671343,3,15.9861983,108.2411153, Mai Đăng Chơn,Hòa Quý,ngũ hành sơn,8.735136367622017,8.7203199830282,8.871055037905531,2.70805020110221,5.91350300563827,1.0986122886681098,2.956751502819135,2.956751502819135,2.1673535550980483,2.165655932549031
9.5,190.0,Không,Nhà mặt tiền,Không có,13.784048752090222,13.784048752090222,3,16.007266,108.2561299, Lê Văn Hiến,Hòa Hải,ngũ hành sơn,6.44242357425875,7.502639756624858,7.955565117413681,2.2512917986064953,5.247024072160486,1.0986122886681098,2.623512036080243,2.623512036080243,1.8629048007279976,2.015254926166198
3.8,100.0,Không,Nhà mặt tiền,Không có,10.0,10.0,1,16.0768743,108.1613001, Trần Nguyên Đán,Hòa Minh,liên chiểu,9.3230983465541,5.713151408100895,4.93166523441203,1.33500106673234,4.605170185988092,0.0,2.302585092994046,2.302585092994046,2.2324950140687543,1.7427707817718359
32.0,384.0,Không,Nhà mặt tiền,Giấy tờ hợp lệ,18.0,21.3,3,16.0438995,108.2150564, Tiểu La,Hòa Cường Bắc,hải châu,4.181375552417888,1.782537511421301,1.9824285931780337,3.4657359027997265,5.950642552587727,1.0986122886681098,2.8903717578961645,3.0587070727153796,1.4306402719276845,0.5780379173605109
2.6,100.0,Tây Nam,Nhà mặt tiền,Giấy tờ hợp lệ,5.0,20.0,1,16.0985345,108.141334, Xuân Thiều 14,Hòa Hiệp Nam,liên chiểu,11.95831905924448,8.665236520341107,7.997778745685504,0.9555114450274363,4.605170185988092,0.0,1.6094379124341003,2.995732273553991,2.4814271917589337,2.15931921885287
